[
	{
		"id": "1",
		"zip": "10200",
		"city": "กรุงเทพมหานคร",
		"district": "พระนคร",
		"lat": 13.7560243,
		"lng": 100.4986793
	 ,"country": "ประเทศไทย" },
	{
		"id": "2",
		"zip": "10300",
		"city": "กรุงเทพมหานคร",
		"district": "ดุสิต",
		"lat": 13.7726943,
		"lng": 100.5099262
	 ,"country": "ประเทศไทย" },
	{
		"id": "3",
		"zip": "10530",
		"city": "กรุงเทพมหานคร",
		"district": "หนองจอก",
		"lat": 13.8559883,
		"lng": 100.8619689
	 ,"country": "ประเทศไทย" },
	{
		"id": "4",
		"zip": "10500",
		"city": "กรุงเทพมหานคร",
		"district": "บางรัก",
		"lat": 13.7262395,
		"lng": 100.5267991
	 ,"country": "ประเทศไทย" },
	{
		"id": "5",
		"zip": "10220",
		"city": "กรุงเทพมหานคร",
		"district": "บางเขน",
		"lat": 13.864387,
		"lng": 100.6146434
	 ,"country": "ประเทศไทย" },
	{
		"id": "6",
		"zip": "10240",
		"city": "กรุงเทพมหานคร",
		"district": "บางกะปิ",
		"lat": 13.7650282,
		"lng": 100.6473885
	 ,"country": "ประเทศไทย" },
	{
		"id": "7",
		"zip": "10330",
		"city": "กรุงเทพมหานคร",
		"district": "ปทุมวัน",
		"lat": 13.7401666,
		"lng": 100.5352367
	 ,"country": "ประเทศไทย" },
	{
		"id": "8",
		"zip": "10100",
		"city": "กรุงเทพมหานคร",
		"district": "ป้อมปราบศัตรูพ่าย",
		"lat": 13.7514954,
		"lng": 100.5108479
	 ,"country": "ประเทศไทย" },
	{
		"id": "9",
		"zip": "10260",
		"city": "กรุงเทพมหานคร",
		"district": "พระโขนง",
		"lat": 13.6910654,
		"lng": 100.614025
	 ,"country": "ประเทศไทย" },
	{
		"id": "10",
		"zip": "10510",
		"city": "กรุงเทพมหานคร",
		"district": "มีนบุรี",
		"lat": 13.8130488,
		"lng": 100.731339
	 ,"country": "ประเทศไทย" },
	{
		"id": "11",
		"zip": "10520",
		"city": "กรุงเทพมหานคร",
		"district": "ลาดกระบัง",
		"lat": 13.7277339,
		"lng": 100.7486314
	 ,"country": "ประเทศไทย" },
	{
		"id": "12",
		"zip": "10120",
		"city": "กรุงเทพมหานคร",
		"district": "ยานนาวา",
		"lat": 13.7171256,
		"lng": 100.5151327
	 ,"country": "ประเทศไทย" },
	{
		"id": "13",
		"zip": "10100",
		"city": "กรุงเทพมหานคร",
		"district": "สัมพันธวงศ์",
		"lat": 13.7380091,
		"lng": 100.5098502
	 ,"country": "ประเทศไทย" },
	{
		"id": "14",
		"zip": "10400",
		"city": "กรุงเทพมหานคร",
		"district": "พญาไท",
		"lat": 13.7568078,
		"lng": 100.5337793
	 ,"country": "ประเทศไทย" },
	{
		"id": "15",
		"zip": "10600",
		"city": "กรุงเทพมหานคร",
		"district": "ธนบุรี",
		"lat": 13.7164911,
		"lng": 100.4874338
	 ,"country": "ประเทศไทย" },
	{
		"id": "16",
		"zip": "10600",
		"city": "กรุงเทพมหานคร",
		"district": "บางกอกใหญ่",
		"lat": 13.7320727,
		"lng": 100.4814589
	 ,"country": "ประเทศไทย" },
	{
		"id": "17",
		"zip": "10310",
		"city": "กรุงเทพมหานคร",
		"district": "ห้วยขวาง",
		"lat": 13.7790391,
		"lng": 100.5739529
	 ,"country": "ประเทศไทย" },
	{
		"id": "18",
		"zip": "10600",
		"city": "กรุงเทพมหานคร",
		"district": "คลองสาน",
		"lat": 13.7279708,
		"lng": 100.5087902
	 ,"country": "ประเทศไทย" },
	{
		"id": "19",
		"zip": "10170",
		"city": "กรุงเทพมหานคร",
		"district": "ตลิ่งชัน",
		"lat": 13.7733179,
		"lng": 100.4284178
	 ,"country": "ประเทศไทย" },
	{
		"id": "20",
		"zip": "10700",
		"city": "กรุงเทพมหานคร",
		"district": "บางกอกน้อย",
		"lat": 13.7604091,
		"lng": 100.471573
	 ,"country": "ประเทศไทย" },
	{
		"id": "21",
		"zip": "10150",
		"city": "กรุงเทพมหานคร",
		"district": "บางขุนเทียน",
		"lat": 13.5995816,
		"lng": 100.4331316
	 ,"country": "ประเทศไทย" },
	{
		"id": "22",
		"zip": "10160",
		"city": "กรุงเทพมหานคร",
		"district": "ภาษีเจริญ",
		"lat": 13.7207491,
		"lng": 100.4577015
	 ,"country": "ประเทศไทย" },
	{
		"id": "23",
		"zip": "10160",
		"city": "กรุงเทพมหานคร",
		"district": "หนองแขม",
		"lat": 13.7207491,
		"lng": 100.4577015
	 ,"country": "ประเทศไทย" },
	{
		"id": "24",
		"zip": "10140",
		"city": "กรุงเทพมหานคร",
		"district": "ราษฎร์บูรณะ",
		"lat": 13.6812411,
		"lng": 100.5037003
	 ,"country": "ประเทศไทย" },
	{
		"id": "25",
		"zip": "10700",
		"city": "กรุงเทพมหานคร",
		"district": "บางพลัด",
		"lat": 13.7919952,
		"lng": 100.5004335
	 ,"country": "ประเทศไทย" },
	{
		"id": "26",
		"zip": "10400",
		"city": "กรุงเทพมหานคร",
		"district": "ดินแดง",
		"lat": 13.7630761,
		"lng": 100.5433408
	 ,"country": "ประเทศไทย" },
	{
		"id": "27",
		"zip": "10240",
		"city": "กรุงเทพมหานคร",
		"district": "บึงกุ่ม",
		"lat": 13.8038957,
		"lng": 100.647812
	 ,"country": "ประเทศไทย" },
	{
		"id": "28",
		"zip": "10120",
		"city": "กรุงเทพมหานคร",
		"district": "สาทร",
		"lat": 13.6937454,
		"lng": 100.510007
	 ,"country": "ประเทศไทย" },
	{
		"id": "29",
		"zip": "10800",
		"city": "กรุงเทพมหานคร",
		"district": "บางซื่อ",
		"lat": 13.803181,
		"lng": 100.5393292
	 ,"country": "ประเทศไทย" },
	{
		"id": "30",
		"zip": "10900",
		"city": "กรุงเทพมหานคร",
		"district": "จตุจักร",
		"lat": 13.8037421,
		"lng": 100.5546027
	 ,"country": "ประเทศไทย" },
	{
		"id": "31",
		"zip": "10120",
		"city": "กรุงเทพมหานคร",
		"district": "บางคอแหลม",
		"lat": 13.6954096,
		"lng": 100.5127381
	 ,"country": "ประเทศไทย" },
	{
		"id": "32",
		"zip": "10250",
		"city": "กรุงเทพมหานคร",
		"district": "ประเวศ",
		"lat": 13.693295,
		"lng": 100.645971
	 ,"country": "ประเทศไทย" },
	{
		"id": "33",
		"zip": "10110",
		"city": "กรุงเทพมหานคร",
		"district": "คลองเตย",
		"lat": 13.7225158,
		"lng": 100.5540678
	 ,"country": "ประเทศไทย" },
	{
		"id": "34",
		"zip": "10250",
		"city": "กรุงเทพมหานคร",
		"district": "สวนหลวง",
		"lat": 13.7194781,
		"lng": 100.6129534
	 ,"country": "ประเทศไทย" },
	{
		"id": "35",
		"zip": "10150",
		"city": "กรุงเทพมหานคร",
		"district": "จอมทอง",
		"lat": 13.6955177,
		"lng": 100.4453018
	 ,"country": "ประเทศไทย" },
	{
		"id": "36",
		"zip": "10210",
		"city": "กรุงเทพมหานคร",
		"district": "ดอนเมือง",
		"lat": 13.9245384,
		"lng": 100.6038701
	 ,"country": "ประเทศไทย" },
	{
		"id": "37",
		"zip": "10400",
		"city": "กรุงเทพมหานคร",
		"district": "ราชเทวี",
		"lat": 13.7516381,
		"lng": 100.5315687
	 ,"country": "ประเทศไทย" },
	{
		"id": "38",
		"zip": "10230",
		"city": "กรุงเทพมหานคร",
		"district": "ลาดพร้าว",
		"lat": 13.8289265,
		"lng": 100.5943624
	 ,"country": "ประเทศไทย" },
	{
		"id": "39",
		"zip": "10110",
		"city": "กรุงเทพมหานคร",
		"district": "วัฒนา",
		"lat": 13.7398583,
		"lng": 100.5594458
	 ,"country": "ประเทศไทย" },
	{
		"id": "40",
		"zip": "10160",
		"city": "กรุงเทพมหานคร",
		"district": "บางแค",
		"lat": 13.6988894,
		"lng": 100.4210604
	 ,"country": "ประเทศไทย" },
	{
		"id": "41",
		"zip": "10210",
		"city": "กรุงเทพมหานคร",
		"district": "หลักสี่",
		"lat": 13.8841935,
		"lng": 100.5774799
	 ,"country": "ประเทศไทย" },
	{
		"id": "42",
		"zip": "10220",
		"city": "กรุงเทพมหานคร",
		"district": "สายไหม",
		"lat": 13.9213159,
		"lng": 100.683202
	 ,"country": "ประเทศไทย" },
	{
		"id": "43",
		"zip": "10230",
		"city": "กรุงเทพมหานคร",
		"district": "คันนายาว",
		"lat": 13.793899,
		"lng": 100.692192
	 ,"country": "ประเทศไทย" },
	{
		"id": "44",
		"zip": "10240",
		"city": "กรุงเทพมหานคร",
		"district": "สะพานสูง",
		"lat": 13.7676357,
		"lng": 100.6928804
	 ,"country": "ประเทศไทย" },
	{
		"id": "45",
		"zip": "10310",
		"city": "กรุงเทพมหานคร",
		"district": "วังทองหลาง",
		"lat": 13.7802488,
		"lng": 100.5999507
	 ,"country": "ประเทศไทย" },
	{
		"id": "46",
		"zip": "10510",
		"city": "กรุงเทพมหานคร",
		"district": "คลองสามวา",
		"lat": 13.8381942,
		"lng": 100.7295908
	 ,"country": "ประเทศไทย" },
	{
		"id": "47",
		"zip": "10260",
		"city": "กรุงเทพมหานคร",
		"district": "บางนา",
		"lat": 13.6682906,
		"lng": 100.6048034
	 ,"country": "ประเทศไทย" },
	{
		"id": "48",
		"zip": "10170",
		"city": "กรุงเทพมหานคร",
		"district": "ทวีวัฒนา",
		"lat": 13.7648929,
		"lng": 100.3343991
	 ,"country": "ประเทศไทย" },
	{
		"id": "49",
		"zip": "10140",
		"city": "กรุงเทพมหานคร",
		"district": "ทุ่งครุ",
		"lat": 13.6191708,
		"lng": 100.5103542
	 ,"country": "ประเทศไทย" },
	{
		"id": "50",
		"zip": "10150",
		"city": "กรุงเทพมหานคร",
		"district": "บางบอน",
		"lat": 13.6670215,
		"lng": 100.4036861
	 ,"country": "ประเทศไทย" },
	{
		"id": "51",
		"zip": "10270",
		"city": "สมุทรปราการ",
		"district": "เมืองสมุทรปราการ",
		"lat": 13.6213747,
		"lng": 100.5992148
	 ,"country": "ประเทศไทย" },
	{
		"id": "52",
		"zip": "10280",
		"city": "สมุทรปราการ",
		"district": "เมืองสมุทรปราการ",
		"lat": 13.5748422,
		"lng": 100.646241
	 ,"country": "ประเทศไทย" },
	{
		"id": "53",
		"zip": "10560",
		"city": "สมุทรปราการ",
		"district": "บางบ่อ",
		"lat": 13.6058169,
		"lng": 100.8677256
	 ,"country": "ประเทศไทย" },
	{
		"id": "54",
		"zip": "10550",
		"city": "สมุทรปราการ",
		"district": "บางบ่อ",
		"lat": 13.5046427,
		"lng": 100.8338593
	 ,"country": "ประเทศไทย" },
	{
		"id": "55",
		"zip": "10540",
		"city": "สมุทรปราการ",
		"district": "บางพลี",
		"lat": 13.6299818,
		"lng": 100.6400175
	 ,"country": "ประเทศไทย" },
	{
		"id": "56",
		"zip": "10130",
		"city": "สมุทรปราการ",
		"district": "พระประแดง",
		"lat": 13.6532561,
		"lng": 100.5633676
	 ,"country": "ประเทศไทย" },
	{
		"id": "57",
		"zip": "10290",
		"city": "สมุทรปราการ",
		"district": "พระสมุทรเจดีย์",
		"lat": 13.5737973,
		"lng": 100.5521142
	 ,"country": "ประเทศไทย" },
	{
		"id": "58",
		"zip": "10540",
		"city": "สมุทรปราการ",
		"district": "บางเสาธง",
		"lat": 13.6132538,
		"lng": 100.8282161
	 ,"country": "ประเทศไทย" },
	{
		"id": "59",
		"zip": "11000",
		"city": "นนทบุรี",
		"district": "เมืองนนทบุรี",
		"lat": 13.8658492,
		"lng": 100.4941285
	 ,"country": "ประเทศไทย" },
	{
		"id": "60",
		"zip": "11130",
		"city": "นนทบุรี",
		"district": "บางกรวย",
		"lat": 13.8068972,
		"lng": 100.4624937
	 ,"country": "ประเทศไทย" },
	{
		"id": "61",
		"zip": "11140",
		"city": "นนทบุรี",
		"district": "บางใหญ่",
		"lat": 13.8445656,
		"lng": 100.3806992
	 ,"country": "ประเทศไทย" },
	{
		"id": "62",
		"zip": "11110",
		"city": "นนทบุรี",
		"district": "บางบัวทอง",
		"lat": 13.9446573,
		"lng": 100.4308137
	 ,"country": "ประเทศไทย" },
	{
		"id": "63",
		"zip": "11150",
		"city": "นนทบุรี",
		"district": "ไทรน้อย",
		"lat": 13.9832139,
		"lng": 100.3385624
	 ,"country": "ประเทศไทย" },
	{
		"id": "64",
		"zip": "11120",
		"city": "นนทบุรี",
		"district": "ปากเกร็ด",
		"lat": 13.9154022,
		"lng": 100.4948197
	 ,"country": "ประเทศไทย" },
	{
		"id": "65",
		"zip": "12000",
		"city": "ปทุมธานี",
		"district": "เมืองปทุมธานี",
		"lat": 13.9854373,
		"lng": 100.5521142
	 ,"country": "ประเทศไทย" },
	{
		"id": "66",
		"zip": "12120",
		"city": "ปทุมธานี",
		"district": "คลองหลวง",
		"lat": 14.0044429,
		"lng": 100.6179542
	 ,"country": "ประเทศไทย" },
	{
		"id": "67",
		"zip": "12130",
		"city": "ปทุมธานี",
		"district": "ธัญบุรี",
		"lat": 13.970533,
		"lng": 100.6309169
	 ,"country": "ประเทศไทย" },
	{
		"id": "68",
		"zip": "12110",
		"city": "ปทุมธานี",
		"district": "ธัญบุรี",
		"lat": 14.0542117,
		"lng": 100.8273123
	 ,"country": "ประเทศไทย" },
	{
		"id": "69",
		"zip": "12170",
		"city": "ปทุมธานี",
		"district": "หนองเสือ",
		"lat": 14.1785783,
		"lng": 100.8451467
	 ,"country": "ประเทศไทย" },
	{
		"id": "70",
		"zip": "12140",
		"city": "ปทุมธานี",
		"district": "ลาดหลุมแก้ว",
		"lat": 14.0032361,
		"lng": 100.4059456
	 ,"country": "ประเทศไทย" },
	{
		"id": "71",
		"zip": "12130",
		"city": "ปทุมธานี",
		"district": "ลำลูกกา",
		"lat": 13.970533,
		"lng": 100.6309169
	 ,"country": "ประเทศไทย" },
	{
		"id": "72",
		"zip": "12150",
		"city": "ปทุมธานี",
		"district": "ลำลูกกา",
		"lat": 13.9290033,
		"lng": 100.7235473
	 ,"country": "ประเทศไทย" },
	{
		"id": "73",
		"zip": "12160",
		"city": "ปทุมธานี",
		"district": "สามโคก",
		"lat": 14.0758882,
		"lng": 100.5208569
	 ,"country": "ประเทศไทย" },
	{
		"id": "74",
		"zip": "13000",
		"city": "พระนครศรีอยุธยา",
		"district": "พระนครศรีอยุธยา",
		"lat": 14.3523939,
		"lng": 100.5521142
	 ,"country": "ประเทศไทย" },
	{
		"id": "75",
		"zip": "13130",
		"city": "พระนครศรีอยุธยา",
		"district": "ท่าเรือ",
		"lat": 14.5599975,
		"lng": 100.7238776
	 ,"country": "ประเทศไทย" },
	{
		"id": "76",
		"zip": "13260",
		"city": "พระนครศรีอยุธยา",
		"district": "นครหลวง",
		"lat": 14.4759803,
		"lng": 100.6241192
	 ,"country": "ประเทศไทย" },
	{
		"id": "77",
		"zip": "13190",
		"city": "พระนครศรีอยุธยา",
		"district": "บางไทร",
		"lat": 14.2186448,
		"lng": 100.4621366
	 ,"country": "ประเทศไทย" },
	{
		"id": "78",
		"zip": "13290",
		"city": "พระนครศรีอยุธยา",
		"district": "บางไทร",
		"lat": 14.1348926,
		"lng": 100.5408622
	 ,"country": "ประเทศไทย" },
	{
		"id": "79",
		"zip": "13250",
		"city": "พระนครศรีอยุธยา",
		"district": "บางบาล",
		"lat": 14.4023507,
		"lng": 100.4621366
	 ,"country": "ประเทศไทย" },
	{
		"id": "80",
		"zip": "13160",
		"city": "พระนครศรีอยุธยา",
		"district": "บางปะอิน",
		"lat": 14.2121868,
		"lng": 100.6045199
	 ,"country": "ประเทศไทย" },
	{
		"id": "81",
		"zip": "13180",
		"city": "พระนครศรีอยุธยา",
		"district": "บางปะอิน",
		"lat": 14.1558336,
		"lng": 100.5858786
	 ,"country": "ประเทศไทย" },
	{
		"id": "82",
		"zip": "13170",
		"city": "พระนครศรีอยุธยา",
		"district": "บางปะอิน",
		"lat": 14.2121868,
		"lng": 100.6045199
	 ,"country": "ประเทศไทย" },
	{
		"id": "83",
		"zip": "13220",
		"city": "พระนครศรีอยุธยา",
		"district": "บางปะหัน",
		"lat": 14.4792629,
		"lng": 100.5408622
	 ,"country": "ประเทศไทย" },
	{
		"id": "84",
		"zip": "13120",
		"city": "พระนครศรีอยุธยา",
		"district": "ผักไห่",
		"lat": 14.4403155,
		"lng": 100.383479
	 ,"country": "ประเทศไทย" },
	{
		"id": "85",
		"zip": "13280",
		"city": "พระนครศรีอยุธยา",
		"district": "ผักไห่",
		"lat": 14.4562626,
		"lng": 100.2824483
	 ,"country": "ประเทศไทย" },
	{
		"id": "86",
		"zip": "13140",
		"city": "พระนครศรีอยุธยา",
		"district": "ภาชี",
		"lat": 14.4477589,
		"lng": 100.724572
	 ,"country": "ประเทศไทย" },
	{
		"id": "87",
		"zip": "13230",
		"city": "พระนครศรีอยุธยา",
		"district": "ลาดบัวหลวง",
		"lat": 14.1766793,
		"lng": 100.3722477
	 ,"country": "ประเทศไทย" },
	{
		"id": "88",
		"zip": "13170",
		"city": "พระนครศรีอยุธยา",
		"district": "วังน้อย",
		"lat": 14.2262517,
		"lng": 100.7272992
	 ,"country": "ประเทศไทย" },
	{
		"id": "89",
		"zip": "13110",
		"city": "พระนครศรีอยุธยา",
		"district": "เสนา",
		"lat": 14.3144265,
		"lng": 100.3722477
	 ,"country": "ประเทศไทย" },
	{
		"id": "90",
		"zip": "13270",
		"city": "พระนครศรีอยุธยา",
		"district": "บางซ้าย",
		"lat": 14.371666,
		"lng": 100.314818
	 ,"country": "ประเทศไทย" },
	{
		"id": "91",
		"zip": "13210",
		"city": "พระนครศรีอยุธยา",
		"district": "อุทัย",
		"lat": 14.3618606,
		"lng": 100.6685901
	 ,"country": "ประเทศไทย" },
	{
		"id": "92",
		"zip": "13150",
		"city": "พระนครศรีอยุธยา",
		"district": "มหาราช",
		"lat": 14.5822246,
		"lng": 100.5521142
	 ,"country": "ประเทศไทย" },
	{
		"id": "93",
		"zip": "13240",
		"city": "พระนครศรีอยุธยา",
		"district": "บ้านแพรก",
		"lat": 14.6456948,
		"lng": 100.5770655
	 ,"country": "ประเทศไทย" },
	{
		"id": "94",
		"zip": "14000",
		"city": "อ่างทอง",
		"district": "เมืองอ่างทอง",
		"lat": 14.5895914,
		"lng": 100.4550554
	 ,"country": "ประเทศไทย" },
	{
		"id": "95",
		"zip": "14140",
		"city": "อ่างทอง",
		"district": "ไชโย",
		"lat": 14.7147825,
		"lng": 100.4358163
	 ,"country": "ประเทศไทย" },
	{
		"id": "96",
		"zip": "14130",
		"city": "อ่างทอง",
		"district": "ป่าโมก",
		"lat": 14.4980456,
		"lng": 100.4424658
	 ,"country": "ประเทศไทย" },
	{
		"id": "97",
		"zip": "14120",
		"city": "อ่างทอง",
		"district": "โพธิ์ทอง",
		"lat": 14.6823992,
		"lng": 100.3722477
	 ,"country": "ประเทศไทย" },
	{
		"id": "98",
		"zip": "14150",
		"city": "อ่างทอง",
		"district": "แสวงหา",
		"lat": 14.7600313,
		"lng": 100.310501
	 ,"country": "ประเทศไทย" },
	{
		"id": "99",
		"zip": "14110",
		"city": "อ่างทอง",
		"district": "วิเศษชัยชาญ",
		"lat": 14.5462949,
		"lng": 100.3273368
	 ,"country": "ประเทศไทย" },
	{
		"id": "100",
		"zip": "14160",
		"city": "อ่างทอง",
		"district": "สามโก้",
		"lat": 14.6013032,
		"lng": 100.2544044
	 ,"country": "ประเทศไทย" },
	{
		"id": "101",
		"zip": "15000",
		"city": "ลพบุรี",
		"district": "เมืองลพบุรี",
		"lat": 14.7996306,
		"lng": 100.6343005
	 ,"country": "ประเทศไทย" },
	{
		"id": "102",
		"zip": "13240",
		"city": "ลพบุรี",
		"district": "เมืองลพบุรี",
		"lat": 14.8034968,
		"lng": 100.6101263
	 ,"country": "ประเทศไทย" },
	{
		"id": "103",
		"zip": "15160",
		"city": "ลพบุรี",
		"district": "เมืองลพบุรี",
		"lat": 14.8982903,
		"lng": 100.6872457
	 ,"country": "ประเทศไทย" },
	{
		"id": "104",
		"zip": "15210",
		"city": "ลพบุรี",
		"district": "เมืองลพบุรี",
		"lat": 14.845847,
		"lng": 100.8225732
	 ,"country": "ประเทศไทย" },
	{
		"id": "105",
		"zip": "15140",
		"city": "ลพบุรี",
		"district": "พัฒนานิคม",
		"lat": 14.8889139,
		"lng": 100.9668767
	 ,"country": "ประเทศไทย" },
	{
		"id": "106",
		"zip": "15220",
		"city": "ลพบุรี",
		"district": "พัฒนานิคม",
		"lat": 14.7955207,
		"lng": 100.9128995
	 ,"country": "ประเทศไทย" },
	{
		"id": "107",
		"zip": "18220",
		"city": "ลพบุรี",
		"district": "พัฒนานิคม",
		"lat": 14.9593421,
		"lng": 101.1734451
	 ,"country": "ประเทศไทย" },
	{
		"id": "108",
		"zip": "15120",
		"city": "ลพบุรี",
		"district": "โคกสำโรง",
		"lat": 15.067666,
		"lng": 100.7217139
	 ,"country": "ประเทศไทย" },
	{
		"id": "109",
		"zip": "15130",
		"city": "ลพบุรี",
		"district": "ชัยบาดาล",
		"lat": 15.2074763,
		"lng": 101.136733
	 ,"country": "ประเทศไทย" },
	{
		"id": "110",
		"zip": "15230",
		"city": "ลพบุรี",
		"district": "ชัยบาดาล",
		"lat": 15.0608556,
		"lng": 101.1390878
	 ,"country": "ประเทศไทย" },
	{
		"id": "111",
		"zip": "15190",
		"city": "ลพบุรี",
		"district": "ชัยบาดาล",
		"lat": 15.3854608,
		"lng": 101.3317605
	 ,"country": "ประเทศไทย" },
	{
		"id": "112",
		"zip": "15150",
		"city": "ลพบุรี",
		"district": "ท่าวุ้ง",
		"lat": 14.8144809,
		"lng": 100.5071143
	 ,"country": "ประเทศไทย" },
	{
		"id": "113",
		"zip": "15180",
		"city": "ลพบุรี",
		"district": "ท่าวุ้ง",
		"lat": 14.81464,
		"lng": 100.5104749
	 ,"country": "ประเทศไทย" },
	{
		"id": "114",
		"zip": "15110",
		"city": "ลพบุรี",
		"district": "บ้านหมี่",
		"lat": 15.089097,
		"lng": 100.5521142
	 ,"country": "ประเทศไทย" },
	{
		"id": "115",
		"zip": "15180",
		"city": "ลพบุรี",
		"district": "บ้านหมี่",
		"lat": 14.9806968,
		"lng": 100.4691229
	 ,"country": "ประเทศไทย" },
	{
		"id": "116",
		"zip": "15230",
		"city": "ลพบุรี",
		"district": "ท่าหลวง",
		"lat": 15.071815,
		"lng": 101.1504111
	 ,"country": "ประเทศไทย" },
	{
		"id": "117",
		"zip": "15240",
		"city": "ลพบุรี",
		"district": "สระโบสถ์",
		"lat": 15.2245864,
		"lng": 100.8564355
	 ,"country": "ประเทศไทย" },
	{
		"id": "118",
		"zip": "15250",
		"city": "ลพบุรี",
		"district": "โคกเจริญ",
		"lat": 15.3944421,
		"lng": 100.7754207
	 ,"country": "ประเทศไทย" },
	{
		"id": "119",
		"zip": "15190",
		"city": "ลพบุรี",
		"district": "ลำสนธิ",
		"lat": 15.3854608,
		"lng": 101.3317605
	 ,"country": "ประเทศไทย" },
	{
		"id": "120",
		"zip": "15130",
		"city": "ลพบุรี",
		"district": "ลำสนธิ",
		"lat": 15.3842964,
		"lng": 101.3544525
	 ,"country": "ประเทศไทย" },
	{
		"id": "121",
		"zip": "15170",
		"city": "ลพบุรี",
		"district": "หนองม่วง",
		"lat": 15.2256001,
		"lng": 100.6600016
	 ,"country": "ประเทศไทย" },
	{
		"id": "122",
		"zip": "16000",
		"city": "สิงห์บุรี",
		"district": "เมืองสิงห์บุรี",
		"lat": 14.8997786,
		"lng": 100.4059456
	 ,"country": "ประเทศไทย" },
	{
		"id": "123",
		"zip": "16130",
		"city": "สิงห์บุรี",
		"district": "บางระจัน",
		"lat": 14.9169141,
		"lng": 100.2824483
	 ,"country": "ประเทศไทย" },
	{
		"id": "124",
		"zip": "16150",
		"city": "สิงห์บุรี",
		"district": "ค่ายบางระจัน",
		"lat": 14.8126417,
		"lng": 100.2936683
	 ,"country": "ประเทศไทย" },
	{
		"id": "125",
		"zip": "16120",
		"city": "สิงห์บุรี",
		"district": "พรหมบุรี",
		"lat": 14.7824909,
		"lng": 100.4508956
	 ,"country": "ประเทศไทย" },
	{
		"id": "126",
		"zip": "16160",
		"city": "สิงห์บุรี",
		"district": "พรหมบุรี",
		"lat": 14.8223351,
		"lng": 100.4394358
	 ,"country": "ประเทศไทย" },
	{
		"id": "127",
		"zip": "16140",
		"city": "สิงห์บุรี",
		"district": "ท่าช้าง",
		"lat": 14.7794841,
		"lng": 100.3891641
	 ,"country": "ประเทศไทย" },
	{
		"id": "128",
		"zip": "16110",
		"city": "สิงห์บุรี",
		"district": "อินทร์บุรี",
		"lat": 15.0011448,
		"lng": 100.3329494
	 ,"country": "ประเทศไทย" },
	{
		"id": "129",
		"zip": "17000",
		"city": "ชัยนาท",
		"district": "เมืองชัยนาท",
		"lat": 15.1252422,
		"lng": 100.1423172
	 ,"country": "ประเทศไทย" },
	{
		"id": "130",
		"zip": "17110",
		"city": "ชัยนาท",
		"district": "มโนรมย์",
		"lat": 15.3388555,
		"lng": 100.1479182
	 ,"country": "ประเทศไทย" },
	{
		"id": "131",
		"zip": "17170",
		"city": "ชัยนาท",
		"district": "มโนรมย์",
		"lat": 15.3015956,
		"lng": 100.2039477
	 ,"country": "ประเทศไทย" },
	{
		"id": "132",
		"zip": "17120",
		"city": "ชัยนาท",
		"district": "วัดสิงห์",
		"lat": 15.2617924,
		"lng": 100.0431355
	 ,"country": "ประเทศไทย" },
	{
		"id": "133",
		"zip": "17150",
		"city": "ชัยนาท",
		"district": "สรรพยา",
		"lat": 15.1327349,
		"lng": 100.2319757
	 ,"country": "ประเทศไทย" },
	{
		"id": "134",
		"zip": "17140",
		"city": "ชัยนาท",
		"district": "สรรคบุรี",
		"lat": 15.0152766,
		"lng": 100.1479182
	 ,"country": "ประเทศไทย" },
	{
		"id": "135",
		"zip": "17130",
		"city": "ชัยนาท",
		"district": "หันคา",
		"lat": 15.0101985,
		"lng": 100.0024084
	 ,"country": "ประเทศไทย" },
	{
		"id": "136",
		"zip": "17160",
		"city": "ชัยนาท",
		"district": "หันคา",
		"lat": 15.1136716,
		"lng": 100.0135929
	 ,"country": "ประเทศไทย" },
	{
		"id": "137",
		"zip": "17120",
		"city": "ชัยนาท",
		"district": "หนองมะโมง",
		"lat": 15.2049356,
		"lng": 99.7790227
	 ,"country": "ประเทศไทย" },
	{
		"id": "138",
		"zip": "17130",
		"city": "ชัยนาท",
		"district": "เนินขาม",
		"lat": 14.9679283,
		"lng": 99.9129845
	 ,"country": "ประเทศไทย" },
	{
		"id": "139",
		"zip": "18000",
		"city": "สระบุรี",
		"district": "เมืองสระบุรี",
		"lat": 14.5288823,
		"lng": 100.9101032
	 ,"country": "ประเทศไทย" },
	{
		"id": "140",
		"zip": "18110",
		"city": "สระบุรี",
		"district": "แก่งคอย",
		"lat": 14.5801157,
		"lng": 101.003522
	 ,"country": "ประเทศไทย" },
	{
		"id": "141",
		"zip": "18260",
		"city": "สระบุรี",
		"district": "แก่งคอย",
		"lat": 14.6029483,
		"lng": 101.0938079
	 ,"country": "ประเทศไทย" },
	{
		"id": "142",
		"zip": "18140",
		"city": "สระบุรี",
		"district": "หนองแค",
		"lat": 14.3380654,
		"lng": 100.8677256
	 ,"country": "ประเทศไทย" },
	{
		"id": "143",
		"zip": "18250",
		"city": "สระบุรี",
		"district": "หนองแค",
		"lat": 14.4155173,
		"lng": 100.8056466
	 ,"country": "ประเทศไทย" },
	{
		"id": "144",
		"zip": "18230",
		"city": "สระบุรี",
		"district": "หนองแค",
		"lat": 14.4168204,
		"lng": 100.901604
	 ,"country": "ประเทศไทย" },
	{
		"id": "145",
		"zip": "18150",
		"city": "สระบุรี",
		"district": "วิหารแดง",
		"lat": 14.3153708,
		"lng": 100.9863525
	 ,"country": "ประเทศไทย" },
	{
		"id": "146",
		"zip": "18170",
		"city": "สระบุรี",
		"district": "หนองแซง",
		"lat": 14.4898955,
		"lng": 100.8112885
	 ,"country": "ประเทศไทย" },
	{
		"id": "147",
		"zip": "18130",
		"city": "สระบุรี",
		"district": "บ้านหมอ",
		"lat": 14.614994,
		"lng": 100.7154228
	 ,"country": "ประเทศไทย" },
	{
		"id": "148",
		"zip": "18270",
		"city": "สระบุรี",
		"district": "บ้านหมอ",
		"lat": 14.6006738,
		"lng": 100.800698
	 ,"country": "ประเทศไทย" },
	{
		"id": "149",
		"zip": "18210",
		"city": "สระบุรี",
		"district": "ดอนพุด",
		"lat": 14.5961403,
		"lng": 100.6252859
	 ,"country": "ประเทศไทย" },
	{
		"id": "150",
		"zip": "18190",
		"city": "สระบุรี",
		"district": "หนองโดน",
		"lat": 14.6790319,
		"lng": 100.6985155
	 ,"country": "ประเทศไทย" },
	{
		"id": "151",
		"zip": "18120",
		"city": "สระบุรี",
		"district": "พระพุทธบาท",
		"lat": 14.7268634,
		"lng": 100.7830826
	 ,"country": "ประเทศไทย" },
	{
		"id": "152",
		"zip": "18160",
		"city": "สระบุรี",
		"district": "เสาไห้",
		"lat": 14.5367501,
		"lng": 100.8536132
	 ,"country": "ประเทศไทย" },
	{
		"id": "153",
		"zip": "18180",
		"city": "สระบุรี",
		"district": "มวกเหล็ก",
		"lat": 14.4608673,
		"lng": 101.1843887
	 ,"country": "ประเทศไทย" },
	{
		"id": "154",
		"zip": "30130",
		"city": "สระบุรี",
		"district": "มวกเหล็ก",
		"lat": 14.6359078,
		"lng": 101.1927802
	 ,"country": "ประเทศไทย" },
	{
		"id": "155",
		"zip": "18220",
		"city": "สระบุรี",
		"district": "มวกเหล็ก",
		"lat": 14.6926819,
		"lng": 101.1390878
	 ,"country": "ประเทศไทย" },
	{
		"id": "156",
		"zip": "18220",
		"city": "สระบุรี",
		"district": "วังม่วง",
		"lat": 14.874441,
		"lng": 101.1843887
	 ,"country": "ประเทศไทย" },
	{
		"id": "157",
		"zip": "18000",
		"city": "สระบุรี",
		"district": "เฉลิมพระเกียรติ",
		"lat": 14.5224885,
		"lng": 100.9139619
	 ,"country": "ประเทศไทย" },
	{
		"id": "158",
		"zip": "18240",
		"city": "สระบุรี",
		"district": "เฉลิมพระเกียรติ",
		"lat": 14.6925337,
		"lng": 100.901604
	 ,"country": "ประเทศไทย" },
	{
		"id": "159",
		"zip": "20000",
		"city": "ชลบุรี",
		"district": "เมืองชลบุรี",
		"lat": 13.3909924,
		"lng": 101.0122861
	 ,"country": "ประเทศไทย" },
	{
		"id": "160",
		"zip": "20130",
		"city": "ชลบุรี",
		"district": "เมืองชลบุรี",
		"lat": 13.2665109,
		"lng": 100.941144
	 ,"country": "ประเทศไทย" },
	{
		"id": "161",
		"zip": "20170",
		"city": "ชลบุรี",
		"district": "บ้านบึง",
		"lat": 13.3104674,
		"lng": 101.1257083
	 ,"country": "ประเทศไทย" },
	{
		"id": "162",
		"zip": "20220",
		"city": "ชลบุรี",
		"district": "บ้านบึง",
		"lat": 13.2274744,
		"lng": 101.1843887
	 ,"country": "ประเทศไทย" },
	{
		"id": "163",
		"zip": "20190",
		"city": "ชลบุรี",
		"district": "หนองใหญ่",
		"lat": 12.951029,
		"lng": 100.9111545
	 ,"country": "ประเทศไทย" },
	{
		"id": "164",
		"zip": "20150",
		"city": "ชลบุรี",
		"district": "บางละมุง",
		"lat": 12.9173831,
		"lng": 101.0033112
	 ,"country": "ประเทศไทย" },
	{
		"id": "165",
		"zip": "20160",
		"city": "ชลบุรี",
		"district": "พานทอง",
		"lat": 13.4743811,
		"lng": 101.0878684
	 ,"country": "ประเทศไทย" },
	{
		"id": "166",
		"zip": "20140",
		"city": "ชลบุรี",
		"district": "พนัสนิคม",
		"lat": 13.4522814,
		"lng": 101.1815568
	 ,"country": "ประเทศไทย" },
	{
		"id": "167",
		"zip": "20110",
		"city": "ชลบุรี",
		"district": "ศรีราชา",
		"lat": 13.1641308,
		"lng": 100.9216588
	 ,"country": "ประเทศไทย" },
	{
		"id": "168",
		"zip": "20230",
		"city": "ชลบุรี",
		"district": "ศรีราชา",
		"lat": 13.0799039,
		"lng": 101.0163228
	 ,"country": "ประเทศไทย" },
	{
		"id": "169",
		"zip": "20120",
		"city": "ชลบุรี",
		"district": "เกาะสีชัง",
		"lat": 13.1499153,
		"lng": 100.8084675
	 ,"country": "ประเทศไทย" },
	{
		"id": "170",
		"zip": "20180",
		"city": "ชลบุรี",
		"district": "สัตหีบ",
		"lat": 12.6836578,
		"lng": 100.901604
	 ,"country": "ประเทศไทย" },
	{
		"id": "171",
		"zip": "20250",
		"city": "ชลบุรี",
		"district": "สัตหีบ",
		"lat": 12.7733331,
		"lng": 100.9241963
	 ,"country": "ประเทศไทย" },
	{
		"id": "172",
		"zip": "20270",
		"city": "ชลบุรี",
		"district": "บ่อทอง",
		"lat": 13.1838889,
		"lng": 101.4908333
	 ,"country": "ประเทศไทย" },
	{
		"id": "173",
		"zip": "20240",
		"city": "ชลบุรี",
		"district": "เกาะจันทร์",
		"lat": 13.3912957,
		"lng": 101.3199255
	 ,"country": "ประเทศไทย" },
	{
		"id": "174",
		"zip": "21000",
		"city": "ระยอง",
		"district": "เมืองระยอง",
		"lat": 12.6754092,
		"lng": 101.3658004
	 ,"country": "ประเทศไทย" },
	{
		"id": "175",
		"zip": "21160",
		"city": "ระยอง",
		"district": "เมืองระยอง",
		"lat": 12.6606737,
		"lng": 101.4452717
	 ,"country": "ประเทศไทย" },
	{
		"id": "176",
		"zip": "21100",
		"city": "ระยอง",
		"district": "เมืองระยอง",
		"lat": 12.761952,
		"lng": 101.4566299
	 ,"country": "ประเทศไทย" },
	{
		"id": "177",
		"zip": "21150",
		"city": "ระยอง",
		"district": "เมืองระยอง",
		"lat": 12.7050978,
		"lng": 101.171274
	 ,"country": "ประเทศไทย" },
	{
		"id": "178",
		"zip": "21130",
		"city": "ระยอง",
		"district": "บ้านฉาง",
		"lat": 12.7341552,
		"lng": 101.048549
	 ,"country": "ประเทศไทย" },
	{
		"id": "179",
		"zip": "21110",
		"city": "ระยอง",
		"district": "แกลง",
		"lat": 12.7797397,
		"lng": 101.6490959
	 ,"country": "ประเทศไทย" },
	{
		"id": "180",
		"zip": "21190",
		"city": "ระยอง",
		"district": "แกลง",
		"lat": 12.6783299,
		"lng": 101.5589105
	 ,"country": "ประเทศไทย" },
	{
		"id": "181",
		"zip": "22160",
		"city": "ระยอง",
		"district": "แกลง",
		"lat": 12.7797397,
		"lng": 101.6490959
	 ,"country": "ประเทศไทย" },
	{
		"id": "182",
		"zip": "21170",
		"city": "ระยอง",
		"district": "แกลง",
		"lat": 12.7208265,
		"lng": 101.7149678
	 ,"country": "ประเทศไทย" },
	{
		"id": "183",
		"zip": "21210",
		"city": "ระยอง",
		"district": "วังจันทร์",
		"lat": 12.9310911,
		"lng": 101.5198329
	 ,"country": "ประเทศไทย" },
	{
		"id": "184",
		"zip": "21120",
		"city": "ระยอง",
		"district": "บ้านค่าย",
		"lat": 12.7855768,
		"lng": 101.3034028
	 ,"country": "ประเทศไทย" },
	{
		"id": "185",
		"zip": "21140",
		"city": "ระยอง",
		"district": "ปลวกแดง",
		"lat": 12.9707642,
		"lng": 101.2163774
	 ,"country": "ประเทศไทย" },
	{
		"id": "186",
		"zip": "21110",
		"city": "ระยอง",
		"district": "เขาชะเมา",
		"lat": 12.96,
		"lng": 101.7383333
	 ,"country": "ประเทศไทย" },
	{
		"id": "187",
		"zip": "21180",
		"city": "ระยอง",
		"district": "นิคมพัฒนา",
		"lat": 12.8308102,
		"lng": 101.1730615
	 ,"country": "ประเทศไทย" },
	{
		"id": "188",
		"zip": "22000",
		"city": "จันทบุรี",
		"district": "เมืองจันทบุรี",
		"lat": 12.6112485,
		"lng": 102.1037806
	 ,"country": "ประเทศไทย" },
	{
		"id": "189",
		"zip": "22110",
		"city": "จันทบุรี",
		"district": "ขลุง",
		"lat": 12.4537943,
		"lng": 102.2290442
	 ,"country": "ประเทศไทย" },
	{
		"id": "190",
		"zip": "22150",
		"city": "จันทบุรี",
		"district": "ขลุง",
		"lat": 12.746324,
		"lng": 102.3005803
	 ,"country": "ประเทศไทย" },
	{
		"id": "191",
		"zip": "22120",
		"city": "จันทบุรี",
		"district": "ท่าใหม่",
		"lat": 12.647214,
		"lng": 102.0032957
	 ,"country": "ประเทศไทย" },
	{
		"id": "192",
		"zip": "22170",
		"city": "จันทบุรี",
		"district": "ท่าใหม่",
		"lat": 12.7802959,
		"lng": 101.9723228
	 ,"country": "ประเทศไทย" },
	{
		"id": "193",
		"zip": "22140",
		"city": "จันทบุรี",
		"district": "โป่งน้ำร้อน",
		"lat": 12.9628371,
		"lng": 102.4934904
	 ,"country": "ประเทศไทย" },
	{
		"id": "194",
		"zip": "22150",
		"city": "จันทบุรี",
		"district": "มะขาม",
		"lat": 12.6575,
		"lng": 102.1969444
	 ,"country": "ประเทศไทย" },
	{
		"id": "195",
		"zip": "22130",
		"city": "จันทบุรี",
		"district": "แหลมสิงห์",
		"lat": 12.4680818,
		"lng": 102.100396
	 ,"country": "ประเทศไทย" },
	{
		"id": "196",
		"zip": "22190",
		"city": "จันทบุรี",
		"district": "แหลมสิงห์",
		"lat": 12.4680818,
		"lng": 102.100396
	 ,"country": "ประเทศไทย" },
	{
		"id": "197",
		"zip": "22120",
		"city": "จันทบุรี",
		"district": "แหลมสิงห์",
		"lat": 12.4797222,
		"lng": 102.0516667
	 ,"country": "ประเทศไทย" },
	{
		"id": "198",
		"zip": "22180",
		"city": "จันทบุรี",
		"district": "สอยดาว",
		"lat": 13.06,
		"lng": 102.1555556
	 ,"country": "ประเทศไทย" },
	{
		"id": "199",
		"zip": "22160",
		"city": "จันทบุรี",
		"district": "แก่งหางแมว",
		"lat": 12.9678205,
		"lng": 101.9119871
	 ,"country": "ประเทศไทย" },
	{
		"id": "200",
		"zip": "22160",
		"city": "จันทบุรี",
		"district": "นายายอาม",
		"lat": 12.7781601,
		"lng": 101.8549588
	 ,"country": "ประเทศไทย" },
	{
		"id": "201",
		"zip": "22170",
		"city": "จันทบุรี",
		"district": "นายายอาม",
		"lat": 12.7781601,
		"lng": 101.8549588
	 ,"country": "ประเทศไทย" },
	{
		"id": "202",
		"zip": "22210",
		"city": "จันทบุรี",
		"district": "เขาคิชฌกูฏ",
		"lat": 12.8497222,
		"lng": 102.1697222
	 ,"country": "ประเทศไทย" },
	{
		"id": "203",
		"zip": "23000",
		"city": "ตราด",
		"district": "เมืองตราด",
		"lat": 12.2427059,
		"lng": 102.5174726
	 ,"country": "ประเทศไทย" },
	{
		"id": "204",
		"zip": "23110",
		"city": "ตราด",
		"district": "คลองใหญ่",
		"lat": 11.7786113,
		"lng": 102.8882438
	 ,"country": "ประเทศไทย" },
	{
		"id": "205",
		"zip": "23130",
		"city": "ตราด",
		"district": "เขาสมิง",
		"lat": 12.345,
		"lng": 102.4536111
	 ,"country": "ประเทศไทย" },
	{
		"id": "206",
		"zip": "23150",
		"city": "ตราด",
		"district": "เขาสมิง",
		"lat": 12.3227921,
		"lng": 102.4495221
	 ,"country": "ประเทศไทย" },
	{
		"id": "207",
		"zip": "23140",
		"city": "ตราด",
		"district": "บ่อไร่",
		"lat": 12.5766509,
		"lng": 102.5527505
	 ,"country": "ประเทศไทย" },
	{
		"id": "208",
		"zip": "23120",
		"city": "ตราด",
		"district": "แหลมงอบ",
		"lat": 12.1783502,
		"lng": 102.3996973
	 ,"country": "ประเทศไทย" },
	{
		"id": "209",
		"zip": "23000",
		"city": "ตราด",
		"district": "เกาะกูด",
		"lat": 11.6680759,
		"lng": 102.5642261
	 ,"country": "ประเทศไทย" },
	{
		"id": "210",
		"zip": "23170",
		"city": "ตราด",
		"district": "เกาะช้าง",
		"lat": 12.0479159,
		"lng": 102.3234816
	 ,"country": "ประเทศไทย" },
	{
		"id": "211",
		"zip": "24000",
		"city": "ฉะเชิงเทรา",
		"district": "เมืองฉะเชิงเทรา",
		"lat": 13.6592703,
		"lng": 101.0717963
	 ,"country": "ประเทศไทย" },
	{
		"id": "212",
		"zip": "24110",
		"city": "ฉะเชิงเทรา",
		"district": "บางคล้า",
		"lat": 13.723331,
		"lng": 101.2066116
	 ,"country": "ประเทศไทย" },
	{
		"id": "213",
		"zip": "24150",
		"city": "ฉะเชิงเทรา",
		"district": "บางน้ำเปรี้ยว",
		"lat": 13.871792,
		"lng": 101.048549
	 ,"country": "ประเทศไทย" },
	{
		"id": "214",
		"zip": "24170",
		"city": "ฉะเชิงเทรา",
		"district": "บางน้ำเปรี้ยว",
		"lat": 13.9216171,
		"lng": 100.9580947
	 ,"country": "ประเทศไทย" },
	{
		"id": "215",
		"zip": "24000",
		"city": "ฉะเชิงเทรา",
		"district": "บางน้ำเปรี้ยว",
		"lat": 13.7456051,
		"lng": 101.0793925
	 ,"country": "ประเทศไทย" },
	{
		"id": "216",
		"zip": "24130",
		"city": "ฉะเชิงเทรา",
		"district": "บางปะกง",
		"lat": 13.4987164,
		"lng": 100.9693968
	 ,"country": "ประเทศไทย" },
	{
		"id": "217",
		"zip": "24180",
		"city": "ฉะเชิงเทรา",
		"district": "บางปะกง",
		"lat": 13.5681165,
		"lng": 100.9467939
	 ,"country": "ประเทศไทย" },
	{
		"id": "218",
		"zip": "24140",
		"city": "ฉะเชิงเทรา",
		"district": "บ้านโพธิ์",
		"lat": 13.5957905,
		"lng": 101.0938079
	 ,"country": "ประเทศไทย" },
	{
		"id": "219",
		"zip": "24120",
		"city": "ฉะเชิงเทรา",
		"district": "พนมสารคาม",
		"lat": 13.7496342,
		"lng": 101.3410688
	 ,"country": "ประเทศไทย" },
	{
		"id": "220",
		"zip": "24120",
		"city": "ฉะเชิงเทรา",
		"district": "ราชสาส์น",
		"lat": 13.7809557,
		"lng": 101.286392
	 ,"country": "ประเทศไทย" },
	{
		"id": "221",
		"zip": "24160",
		"city": "ฉะเชิงเทรา",
		"district": "สนามชัยเขต",
		"lat": 13.6581446,
		"lng": 101.4381602
	 ,"country": "ประเทศไทย" },
	{
		"id": "222",
		"zip": "24190",
		"city": "ฉะเชิงเทรา",
		"district": "แปลงยาว",
		"lat": 13.6068853,
		"lng": 101.2493924
	 ,"country": "ประเทศไทย" },
	{
		"id": "223",
		"zip": "24160",
		"city": "ฉะเชิงเทรา",
		"district": "ท่าตะเกียบ",
		"lat": 13.4754941,
		"lng": 101.7296049
	 ,"country": "ประเทศไทย" },
	{
		"id": "224",
		"zip": "24000",
		"city": "ฉะเชิงเทรา",
		"district": "คลองเขื่อน",
		"lat": 13.780713,
		"lng": 101.1673984
	 ,"country": "ประเทศไทย" },
	{
		"id": "225",
		"zip": "24110",
		"city": "ฉะเชิงเทรา",
		"district": "คลองเขื่อน",
		"lat": 13.780713,
		"lng": 101.1673984
	 ,"country": "ประเทศไทย" },
	{
		"id": "226",
		"zip": "25000",
		"city": "ปราจีนบุรี",
		"district": "เมืองปราจีนบุรี",
		"lat": 14.0552548,
		"lng": 101.3784849
	 ,"country": "ประเทศไทย" },
	{
		"id": "227",
		"zip": "25230",
		"city": "ปราจีนบุรี",
		"district": "เมืองปราจีนบุรี",
		"lat": 14.1048307,
		"lng": 101.3559574
	 ,"country": "ประเทศไทย" },
	{
		"id": "228",
		"zip": "25110",
		"city": "ปราจีนบุรี",
		"district": "กบินทร์บุรี",
		"lat": 14.0650764,
		"lng": 101.834905
	 ,"country": "ประเทศไทย" },
	{
		"id": "229",
		"zip": "25240",
		"city": "ปราจีนบุรี",
		"district": "กบินทร์บุรี",
		"lat": 13.9865542,
		"lng": 101.7637775
	 ,"country": "ประเทศไทย" },
	{
		"id": "230",
		"zip": "25220",
		"city": "ปราจีนบุรี",
		"district": "นาดี",
		"lat": 14.2030447,
		"lng": 101.7751709
	 ,"country": "ประเทศไทย" },
	{
		"id": "231",
		"zip": "25150",
		"city": "ปราจีนบุรี",
		"district": "บ้านสร้าง",
		"lat": 14.0065988,
		"lng": 101.2240441
	 ,"country": "ประเทศไทย" },
	{
		"id": "232",
		"zip": "25130",
		"city": "ปราจีนบุรี",
		"district": "ประจันตคาม",
		"lat": 14.0508866,
		"lng": 101.4963935
	 ,"country": "ประเทศไทย" },
	{
		"id": "233",
		"zip": "25140",
		"city": "ปราจีนบุรี",
		"district": "ศรีมหาโพธิ",
		"lat": 13.8964152,
		"lng": 101.5020752
	 ,"country": "ประเทศไทย" },
	{
		"id": "234",
		"zip": "25190",
		"city": "ปราจีนบุรี",
		"district": "ศรีมโหสถ",
		"lat": 13.8320366,
		"lng": 101.4561219
	 ,"country": "ประเทศไทย" },
	{
		"id": "235",
		"zip": "26000",
		"city": "นครนายก",
		"district": "เมืองนครนายก",
		"lat": 14.2038387,
		"lng": 101.2268773
	 ,"country": "ประเทศไทย" },
	{
		"id": "236",
		"zip": "26130",
		"city": "นครนายก",
		"district": "ปากพลี",
		"lat": 14.1063403,
		"lng": 101.2920619
	 ,"country": "ประเทศไทย" },
	{
		"id": "237",
		"zip": "26110",
		"city": "นครนายก",
		"district": "บ้านนา",
		"lat": 14.2613322,
		"lng": 101.0697615
	 ,"country": "ประเทศไทย" },
	{
		"id": "238",
		"zip": "26120",
		"city": "นครนายก",
		"district": "องครักษ์",
		"lat": 14.0971575,
		"lng": 100.997658
	 ,"country": "ประเทศไทย" },
	{
		"id": "239",
		"zip": "27000",
		"city": "สระแก้ว",
		"district": "เมืองสระแก้ว",
		"lat": 13.8240407,
		"lng": 102.0645821
	 ,"country": "ประเทศไทย" },
	{
		"id": "240",
		"zip": "27260",
		"city": "สระแก้ว",
		"district": "คลองหาด",
		"lat": 13.448373,
		"lng": 102.3070208
	 ,"country": "ประเทศไทย" },
	{
		"id": "241",
		"zip": "27180",
		"city": "สระแก้ว",
		"district": "ตาพระยา",
		"lat": 14.1115298,
		"lng": 102.589708
	 ,"country": "ประเทศไทย" },
	{
		"id": "242",
		"zip": "27210",
		"city": "สระแก้ว",
		"district": "วังน้ำเย็น",
		"lat": 13.5034908,
		"lng": 102.0946818
	 ,"country": "ประเทศไทย" },
	{
		"id": "243",
		"zip": "27160",
		"city": "สระแก้ว",
		"district": "วัฒนานคร",
		"lat": 13.7303147,
		"lng": 102.334934
	 ,"country": "ประเทศไทย" },
	{
		"id": "244",
		"zip": "27120",
		"city": "สระแก้ว",
		"district": "อรัญประเทศ",
		"lat": 13.7479007,
		"lng": 102.5203939
	 ,"country": "ประเทศไทย" },
	{
		"id": "245",
		"zip": "27000",
		"city": "สระแก้ว",
		"district": "เขาฉกรรจ์",
		"lat": 13.8240407,
		"lng": 102.0645821
	 ,"country": "ประเทศไทย" },
	{
		"id": "246",
		"zip": "27120",
		"city": "สระแก้ว",
		"district": "โคกสูง",
		"lat": 13.8151696,
		"lng": 102.7003989
	 ,"country": "ประเทศไทย" },
	{
		"id": "247",
		"zip": "27180",
		"city": "สระแก้ว",
		"district": "โคกสูง",
		"lat": 13.8400359,
		"lng": 102.5994097
	 ,"country": "ประเทศไทย" },
	{
		"id": "248",
		"zip": "27250",
		"city": "สระแก้ว",
		"district": "วังสมบูรณ์",
		"lat": 13.3152042,
		"lng": 102.2319048
	 ,"country": "ประเทศไทย" },
	{
		"id": "249",
		"zip": "30000",
		"city": "นครราชสีมา",
		"district": "เมืองนครราชสีมา",
		"lat": 14.9415189,
		"lng": 102.1175404
	 ,"country": "ประเทศไทย" },
	{
		"id": "250",
		"zip": "30310",
		"city": "นครราชสีมา",
		"district": "เมืองนครราชสีมา",
		"lat": 15.0551186,
		"lng": 102.1404037
	 ,"country": "ประเทศไทย" },
	{
		"id": "251",
		"zip": "30280",
		"city": "นครราชสีมา",
		"district": "เมืองนครราชสีมา",
		"lat": 15.0649072,
		"lng": 101.9576317
	 ,"country": "ประเทศไทย" },
	{
		"id": "252",
		"zip": "30250",
		"city": "นครราชสีมา",
		"district": "ครบุรี",
		"lat": 14.5866835,
		"lng": 102.1061105
	 ,"country": "ประเทศไทย" },
	{
		"id": "253",
		"zip": "30330",
		"city": "นครราชสีมา",
		"district": "เสิงสาง",
		"lat": 14.3723113,
		"lng": 102.4839212
	 ,"country": "ประเทศไทย" },
	{
		"id": "254",
		"zip": "30260",
		"city": "นครราชสีมา",
		"district": "คง",
		"lat": 15.4129378,
		"lng": 102.3234816
	 ,"country": "ประเทศไทย" },
	{
		"id": "255",
		"zip": "30350",
		"city": "นครราชสีมา",
		"district": "บ้านเหลื่อม",
		"lat": 15.6195755,
		"lng": 102.1289715
	 ,"country": "ประเทศไทย" },
	{
		"id": "256",
		"zip": "30230",
		"city": "นครราชสีมา",
		"district": "จักราช",
		"lat": 15.026754,
		"lng": 102.4495221
	 ,"country": "ประเทศไทย" },
	{
		"id": "257",
		"zip": "30190",
		"city": "นครราชสีมา",
		"district": "โชคชัย",
		"lat": 14.72328,
		"lng": 102.1609718
	 ,"country": "ประเทศไทย" },
	{
		"id": "258",
		"zip": "30210",
		"city": "นครราชสีมา",
		"district": "ด่านขุนทด",
		"lat": 15.1786657,
		"lng": 101.7637775
	 ,"country": "ประเทศไทย" },
	{
		"id": "259",
		"zip": "36220",
		"city": "นครราชสีมา",
		"district": "ด่านขุนทด",
		"lat": 15.211024,
		"lng": 101.7475374
	 ,"country": "ประเทศไทย" },
	{
		"id": "260",
		"zip": "30220",
		"city": "นครราชสีมา",
		"district": "โนนไทย",
		"lat": 15.2088556,
		"lng": 102.060403
	 ,"country": "ประเทศไทย" },
	{
		"id": "261",
		"zip": "30160",
		"city": "นครราชสีมา",
		"district": "โนนสูง",
		"lat": 15.2072285,
		"lng": 102.3005803
	 ,"country": "ประเทศไทย" },
	{
		"id": "262",
		"zip": "30420",
		"city": "นครราชสีมา",
		"district": "โนนสูง",
		"lat": 15.2602449,
		"lng": 102.3807553
	 ,"country": "ประเทศไทย" },
	{
		"id": "263",
		"zip": "30290",
		"city": "นครราชสีมา",
		"district": "ขามสะแกแสง",
		"lat": 15.3575998,
		"lng": 102.1804261
	 ,"country": "ประเทศไทย" },
	{
		"id": "264",
		"zip": "30120",
		"city": "นครราชสีมา",
		"district": "บัวใหญ่",
		"lat": 15.5835978,
		"lng": 102.4253001
	 ,"country": "ประเทศไทย" },
	{
		"id": "265",
		"zip": "30180",
		"city": "นครราชสีมา",
		"district": "ประทาย",
		"lat": 15.5334573,
		"lng": 102.7307497
	 ,"country": "ประเทศไทย" },
	{
		"id": "266",
		"zip": "30150",
		"city": "นครราชสีมา",
		"district": "ปักธงชัย",
		"lat": 14.786474,
		"lng": 102.0438378
	 ,"country": "ประเทศไทย" },
	{
		"id": "267",
		"zip": "30110",
		"city": "นครราชสีมา",
		"district": "พิมาย",
		"lat": 15.1970346,
		"lng": 102.4839212
	 ,"country": "ประเทศไทย" },
	{
		"id": "268",
		"zip": "30240",
		"city": "นครราชสีมา",
		"district": "ห้วยแถลง",
		"lat": 14.989289,
		"lng": 102.7003451
	 ,"country": "ประเทศไทย" },
	{
		"id": "269",
		"zip": "30270",
		"city": "นครราชสีมา",
		"district": "ชุมพวง",
		"lat": 15.3500317,
		"lng": 102.742295
	 ,"country": "ประเทศไทย" },
	{
		"id": "270",
		"zip": "30170",
		"city": "นครราชสีมา",
		"district": "สูงเนิน",
		"lat": 14.8704596,
		"lng": 101.8322677
	 ,"country": "ประเทศไทย" },
	{
		"id": "271",
		"zip": "30380",
		"city": "นครราชสีมา",
		"district": "สูงเนิน",
		"lat": 14.8267147,
		"lng": 101.900579
	 ,"country": "ประเทศไทย" },
	{
		"id": "272",
		"zip": "30280",
		"city": "นครราชสีมา",
		"district": "ขามทะเลสอ",
		"lat": 14.9608979,
		"lng": 101.9690458
	 ,"country": "ประเทศไทย" },
	{
		"id": "273",
		"zip": "30140",
		"city": "นครราชสีมา",
		"district": "สีคิ้ว",
		"lat": 14.9919687,
		"lng": 101.5930268
	 ,"country": "ประเทศไทย" },
	{
		"id": "274",
		"zip": "30340",
		"city": "นครราชสีมา",
		"district": "สีคิ้ว",
		"lat": 14.8540321,
		"lng": 101.5930268
	 ,"country": "ประเทศไทย" },
	{
		"id": "275",
		"zip": "30130",
		"city": "นครราชสีมา",
		"district": "ปากช่อง",
		"lat": 14.7275612,
		"lng": 101.3658004
	 ,"country": "ประเทศไทย" },
	{
		"id": "276",
		"zip": "30320",
		"city": "นครราชสีมา",
		"district": "ปากช่อง",
		"lat": 14.6401336,
		"lng": 101.2750531
	 ,"country": "ประเทศไทย" },
	{
		"id": "277",
		"zip": "30410",
		"city": "นครราชสีมา",
		"district": "หนองบุญมาก",
		"lat": 14.7358946,
		"lng": 102.3937099
	 ,"country": "ประเทศไทย" },
	{
		"id": "278",
		"zip": "30440",
		"city": "นครราชสีมา",
		"district": "แก้งสนามนาง",
		"lat": 15.7271335,
		"lng": 102.2662372
	 ,"country": "ประเทศไทย" },
	{
		"id": "279",
		"zip": "30360",
		"city": "นครราชสีมา",
		"district": "โนนแดง",
		"lat": 15.4121381,
		"lng": 102.5412761
	 ,"country": "ประเทศไทย" },
	{
		"id": "280",
		"zip": "30370",
		"city": "นครราชสีมา",
		"district": "วังน้ำเขียว",
		"lat": 14.4364486,
		"lng": 101.6840589
	 ,"country": "ประเทศไทย" },
	{
		"id": "281",
		"zip": "30150",
		"city": "นครราชสีมา",
		"district": "วังน้ำเขียว",
		"lat": 14.4173143,
		"lng": 101.8620066
	 ,"country": "ประเทศไทย" },
	{
		"id": "282",
		"zip": "30210",
		"city": "นครราชสีมา",
		"district": "เทพารักษ์",
		"lat": 15.2729261,
		"lng": 101.5020752
	 ,"country": "ประเทศไทย" },
	{
		"id": "283",
		"zip": "30270",
		"city": "นครราชสีมา",
		"district": "เมืองยาง",
		"lat": 15.2227739,
		"lng": 102.8263206
	 ,"country": "ประเทศไทย" },
	{
		"id": "284",
		"zip": "30220",
		"city": "นครราชสีมา",
		"district": "พระทองคำ",
		"lat": 15.3708926,
		"lng": 101.9831805
	 ,"country": "ประเทศไทย" },
	{
		"id": "285",
		"zip": "30270",
		"city": "นครราชสีมา",
		"district": "ลำทะเมนชัย",
		"lat": 15.2868802,
		"lng": 102.9205295
	 ,"country": "ประเทศไทย" },
	{
		"id": "286",
		"zip": "30120",
		"city": "นครราชสีมา",
		"district": "บัวลาย",
		"lat": 15.6462253,
		"lng": 102.4724537
	 ,"country": "ประเทศไทย" },
	{
		"id": "287",
		"zip": "30430",
		"city": "นครราชสีมา",
		"district": "สีดา",
		"lat": 15.5718701,
		"lng": 102.5642261
	 ,"country": "ประเทศไทย" },
	{
		"id": "288",
		"zip": "30230",
		"city": "นครราชสีมา",
		"district": "เฉลิมพระเกียรติ",
		"lat": 15.0017506,
		"lng": 102.2776838
	 ,"country": "ประเทศไทย" },
	{
		"id": "289",
		"zip": "30000",
		"city": "นครราชสีมา",
		"district": "เฉลิมพระเกียรติ",
		"lat": 15.0017506,
		"lng": 102.2776838
	 ,"country": "ประเทศไทย" },
	{
		"id": "290",
		"zip": "31000",
		"city": "บุรีรัมย์",
		"district": "เมืองบุรีรัมย์",
		"lat": 14.8905684,
		"lng": 103.035694
	 ,"country": "ประเทศไทย" },
	{
		"id": "291",
		"zip": "31190",
		"city": "บุรีรัมย์",
		"district": "คูเมือง",
		"lat": 15.3273836,
		"lng": 103.0126523
	 ,"country": "ประเทศไทย" },
	{
		"id": "292",
		"zip": "31160",
		"city": "บุรีรัมย์",
		"district": "กระสัง",
		"lat": 14.9094632,
		"lng": 103.3009828
	 ,"country": "ประเทศไทย" },
	{
		"id": "293",
		"zip": "31110",
		"city": "บุรีรัมย์",
		"district": "นางรอง",
		"lat": 15.2427118,
		"lng": 103.0081326
	 ,"country": "ประเทศไทย" },
	{
		"id": "294",
		"zip": "31210",
		"city": "บุรีรัมย์",
		"district": "หนองกี่",
		"lat": 14.7332797,
		"lng": 102.5757028
	 ,"country": "ประเทศไทย" },
	{
		"id": "295",
		"zip": "31170",
		"city": "บุรีรัมย์",
		"district": "ละหานทราย",
		"lat": 14.4196566,
		"lng": 102.8744945
	 ,"country": "ประเทศไทย" },
	{
		"id": "296",
		"zip": "31140",
		"city": "บุรีรัมย์",
		"district": "ประโคนชัย",
		"lat": 14.6014909,
		"lng": 103.0933171
	 ,"country": "ประเทศไทย" },
	{
		"id": "297",
		"zip": "31180",
		"city": "บุรีรัมย์",
		"district": "บ้านกรวด",
		"lat": 14.4356818,
		"lng": 103.0990809
	 ,"country": "ประเทศไทย" },
	{
		"id": "298",
		"zip": "31120",
		"city": "บุรีรัมย์",
		"district": "พุทไธสง",
		"lat": 15.4910959,
		"lng": 102.9974351
	 ,"country": "ประเทศไทย" },
	{
		"id": "299",
		"zip": "31130",
		"city": "บุรีรัมย์",
		"district": "ลำปลายมาศ",
		"lat": 15.0281466,
		"lng": 102.8458197
	 ,"country": "ประเทศไทย" },
	{
		"id": "300",
		"zip": "31150",
		"city": "บุรีรัมย์",
		"district": "สตึก",
		"lat": 15.3003013,
		"lng": 103.2948473
	 ,"country": "ประเทศไทย" },
	{
		"id": "301",
		"zip": "31220",
		"city": "บุรีรัมย์",
		"district": "ปะคำ",
		"lat": 14.4322181,
		"lng": 102.644587
	 ,"country": "ประเทศไทย" },
	{
		"id": "302",
		"zip": "31230",
		"city": "บุรีรัมย์",
		"district": "นาโพธิ์",
		"lat": 15.6408669,
		"lng": 102.9346988
	 ,"country": "ประเทศไทย" },
	{
		"id": "303",
		"zip": "31240",
		"city": "บุรีรัมย์",
		"district": "หนองหงส์",
		"lat": 14.8898061,
		"lng": 102.644587
	 ,"country": "ประเทศไทย" },
	{
		"id": "304",
		"zip": "31250",
		"city": "บุรีรัมย์",
		"district": "พลับพลาชัย",
		"lat": 14.7238528,
		"lng": 103.1509672
	 ,"country": "ประเทศไทย" },
	{
		"id": "305",
		"zip": "31000",
		"city": "บุรีรัมย์",
		"district": "ห้วยราช",
		"lat": 14.9765027,
		"lng": 103.1828685
	 ,"country": "ประเทศไทย" },
	{
		"id": "306",
		"zip": "31110",
		"city": "บุรีรัมย์",
		"district": "โนนสุวรรณ",
		"lat": 14.5744185,
		"lng": 102.597852
	 ,"country": "ประเทศไทย" },
	{
		"id": "307",
		"zip": "31110",
		"city": "บุรีรัมย์",
		"district": "ชำนิ",
		"lat": 14.7926661,
		"lng": 102.8457316
	 ,"country": "ประเทศไทย" },
	{
		"id": "308",
		"zip": "31120",
		"city": "บุรีรัมย์",
		"district": "บ้านใหม่ไชยพจน์",
		"lat": 15.5679804,
		"lng": 102.8284772
	 ,"country": "ประเทศไทย" },
	{
		"id": "309",
		"zip": "31260",
		"city": "บุรีรัมย์",
		"district": "โนนดินแดง",
		"lat": 14.3121305,
		"lng": 102.7485673
	 ,"country": "ประเทศไทย" },
	{
		"id": "310",
		"zip": "31000",
		"city": "บุรีรัมย์",
		"district": "บ้านด่าน",
		"lat": 15.1128022,
		"lng": 103.1591164
	 ,"country": "ประเทศไทย" },
	{
		"id": "311",
		"zip": "31150",
		"city": "บุรีรัมย์",
		"district": "แคนดง",
		"lat": 15.3097773,
		"lng": 103.1163739
	 ,"country": "ประเทศไทย" },
	{
		"id": "312",
		"zip": "31110",
		"city": "บุรีรัมย์",
		"district": "เฉลิมพระเกียรติ",
		"lat": 14.5566749,
		"lng": 102.8744945
	 ,"country": "ประเทศไทย" },
	{
		"id": "313",
		"zip": "31170",
		"city": "บุรีรัมย์",
		"district": "เฉลิมพระเกียรติ",
		"lat": 14.5566749,
		"lng": 102.8744945
	 ,"country": "ประเทศไทย" },
	{
		"id": "314",
		"zip": "32000",
		"city": "สุรินทร์",
		"district": "เมืองสุรินทร์",
		"lat": 14.8828674,
		"lng": 103.4937242
	 ,"country": "ประเทศไทย" },
	{
		"id": "315",
		"zip": "32190",
		"city": "สุรินทร์",
		"district": "ชุมพลบุรี",
		"lat": 15.3942217,
		"lng": 103.4280586
	 ,"country": "ประเทศไทย" },
	{
		"id": "316",
		"zip": "32120",
		"city": "สุรินทร์",
		"district": "ท่าตูม",
		"lat": 15.322183,
		"lng": 103.6765709
	 ,"country": "ประเทศไทย" },
	{
		"id": "317",
		"zip": "32180",
		"city": "สุรินทร์",
		"district": "จอมพระ",
		"lat": 15.1538406,
		"lng": 103.6131203
	 ,"country": "ประเทศไทย" },
	{
		"id": "318",
		"zip": "32140",
		"city": "สุรินทร์",
		"district": "ปราสาท",
		"lat": 14.5950082,
		"lng": 103.4049445
	 ,"country": "ประเทศไทย" },
	{
		"id": "319",
		"zip": "32210",
		"city": "สุรินทร์",
		"district": "กาบเชิง",
		"lat": 14.4822976,
		"lng": 103.5784012
	 ,"country": "ประเทศไทย" },
	{
		"id": "320",
		"zip": "32130",
		"city": "สุรินทร์",
		"district": "รัตนบุรี",
		"lat": 15.3196515,
		"lng": 103.8574529
	 ,"country": "ประเทศไทย" },
	{
		"id": "321",
		"zip": "32160",
		"city": "สุรินทร์",
		"district": "สนม",
		"lat": 15.2104948,
		"lng": 103.7581637
	 ,"country": "ประเทศไทย" },
	{
		"id": "322",
		"zip": "32110",
		"city": "สุรินทร์",
		"district": "ศีขรภูมิ",
		"lat": 14.9056012,
		"lng": 103.7452834
	 ,"country": "ประเทศไทย" },
	{
		"id": "323",
		"zip": "32150",
		"city": "สุรินทร์",
		"district": "สังขะ",
		"lat": 14.6707148,
		"lng": 103.8167772
	 ,"country": "ประเทศไทย" },
	{
		"id": "324",
		"zip": "32220",
		"city": "สุรินทร์",
		"district": "ลำดวน",
		"lat": 14.7061887,
		"lng": 103.6478486
	 ,"country": "ประเทศไทย" },
	{
		"id": "325",
		"zip": "32170",
		"city": "สุรินทร์",
		"district": "สำโรงทาบ",
		"lat": 14.9860058,
		"lng": 103.9260001
	 ,"country": "ประเทศไทย" },
	{
		"id": "326",
		"zip": "32230",
		"city": "สุรินทร์",
		"district": "บัวเชด",
		"lat": 14.5285939,
		"lng": 103.9492051
	 ,"country": "ประเทศไทย" },
	{
		"id": "327",
		"zip": "32140",
		"city": "สุรินทร์",
		"district": "พนมดงรัก",
		"lat": 14.4178959,
		"lng": 103.3125299
	 ,"country": "ประเทศไทย" },
	{
		"id": "328",
		"zip": "32150",
		"city": "สุรินทร์",
		"district": "ศรีณรงค์",
		"lat": 14.7713501,
		"lng": 103.8911999
	 ,"country": "ประเทศไทย" },
	{
		"id": "329",
		"zip": "32000",
		"city": "สุรินทร์",
		"district": "เขวาสินรินทร์",
		"lat": 15.0072693,
		"lng": 103.5784012
	 ,"country": "ประเทศไทย" },
	{
		"id": "330",
		"zip": "32130",
		"city": "สุรินทร์",
		"district": "โนนนารายณ์",
		"lat": 15.1824034,
		"lng": 103.8911999
	 ,"country": "ประเทศไทย" },
	{
		"id": "331",
		"zip": "33000",
		"city": "ศรีสะเกษ",
		"district": "เมืองศรีสะเกษ",
		"lat": 15.1170086,
		"lng": 104.3274123
	 ,"country": "ประเทศไทย" },
	{
		"id": "332",
		"zip": "33190",
		"city": "ศรีสะเกษ",
		"district": "ยางชุมน้อย",
		"lat": 15.241178,
		"lng": 104.4024704
	 ,"country": "ประเทศไทย" },
	{
		"id": "333",
		"zip": "33130",
		"city": "ศรีสะเกษ",
		"district": "กันทรารมย์",
		"lat": 15.1274943,
		"lng": 104.5757366
	 ,"country": "ประเทศไทย" },
	{
		"id": "334",
		"zip": "33110",
		"city": "ศรีสะเกษ",
		"district": "กันทรลักษ์",
		"lat": 14.6066438,
		"lng": 104.705431
	 ,"country": "ประเทศไทย" },
	{
		"id": "335",
		"zip": "33140",
		"city": "ศรีสะเกษ",
		"district": "ขุขันธ์",
		"lat": 14.6417626,
		"lng": 104.1466046
	 ,"country": "ประเทศไทย" },
	{
		"id": "336",
		"zip": "33180",
		"city": "ศรีสะเกษ",
		"district": "ไพรบึง",
		"lat": 14.7531969,
		"lng": 104.367553
	 ,"country": "ประเทศไทย" },
	{
		"id": "337",
		"zip": "33170",
		"city": "ศรีสะเกษ",
		"district": "ปรางค์กู่",
		"lat": 14.8297769,
		"lng": 104.053676
	 ,"country": "ประเทศไทย" },
	{
		"id": "338",
		"zip": "33150",
		"city": "ศรีสะเกษ",
		"district": "ขุนหาญ",
		"lat": 14.5334509,
		"lng": 104.4257533
	 ,"country": "ประเทศไทย" },
	{
		"id": "339",
		"zip": "33160",
		"city": "ศรีสะเกษ",
		"district": "ราษีไศล",
		"lat": 15.3445135,
		"lng": 104.1560983
	 ,"country": "ประเทศไทย" },
	{
		"id": "340",
		"zip": "33120",
		"city": "ศรีสะเกษ",
		"district": "อุทุมพรพิสัย",
		"lat": 15.0977748,
		"lng": 104.1466046
	 ,"country": "ประเทศไทย" },
	{
		"id": "341",
		"zip": "33220",
		"city": "ศรีสะเกษ",
		"district": "บึงบูรพ์",
		"lat": 15.3261466,
		"lng": 104.0594822
	 ,"country": "ประเทศไทย" },
	{
		"id": "342",
		"zip": "33210",
		"city": "ศรีสะเกษ",
		"district": "ห้วยทับทัน",
		"lat": 14.9909258,
		"lng": 104.0304535
	 ,"country": "ประเทศไทย" },
	{
		"id": "343",
		"zip": "33250",
		"city": "ศรีสะเกษ",
		"district": "โนนคูณ",
		"lat": 14.9037704,
		"lng": 104.6821048
	 ,"country": "ประเทศไทย" },
	{
		"id": "344",
		"zip": "33240",
		"city": "ศรีสะเกษ",
		"district": "ศรีรัตนะ",
		"lat": 14.8247444,
		"lng": 104.4956239
	 ,"country": "ประเทศไทย" },
	{
		"id": "345",
		"zip": "33130",
		"city": "ศรีสะเกษ",
		"district": "น้ำเกลี้ยง",
		"lat": 14.9234729,
		"lng": 104.5538744
	 ,"country": "ประเทศไทย" },
	{
		"id": "346",
		"zip": "33270",
		"city": "ศรีสะเกษ",
		"district": "วังหิน",
		"lat": 14.9792432,
		"lng": 104.2163411
	 ,"country": "ประเทศไทย" },
	{
		"id": "347",
		"zip": "33140",
		"city": "ศรีสะเกษ",
		"district": "ภูสิงห์",
		"lat": 14.5488299,
		"lng": 104.1378195
	 ,"country": "ประเทศไทย" },
	{
		"id": "348",
		"zip": "33120",
		"city": "ศรีสะเกษ",
		"district": "เมืองจันทร์",
		"lat": 15.1558333,
		"lng": 104.0272222
	 ,"country": "ประเทศไทย" },
	{
		"id": "349",
		"zip": "33110",
		"city": "ศรีสะเกษ",
		"district": "เบญจลักษ์",
		"lat": 14.8097174,
		"lng": 104.7287607
	 ,"country": "ประเทศไทย" },
	{
		"id": "350",
		"zip": "33230",
		"city": "ศรีสะเกษ",
		"district": "พยุห์",
		"lat": 14.9218093,
		"lng": 104.4024704
	 ,"country": "ประเทศไทย" },
	{
		"id": "351",
		"zip": "33120",
		"city": "ศรีสะเกษ",
		"district": "โพธิ์ศรีสุวรรณ",
		"lat": 15.2285929,
		"lng": 104.0652887
	 ,"country": "ประเทศไทย" },
	{
		"id": "352",
		"zip": "33160",
		"city": "ศรีสะเกษ",
		"district": "ศิลาลาด",
		"lat": 15.478746,
		"lng": 104.088517
	 ,"country": "ประเทศไทย" },
	{
		"id": "353",
		"zip": "34000",
		"city": "อุบลราชธานี",
		"district": "เมืองอุบลราชธานี",
		"lat": 15.2286712,
		"lng": 104.8564472
	 ,"country": "ประเทศไทย" },
	{
		"id": "354",
		"zip": "34250",
		"city": "อุบลราชธานี",
		"district": "ศรีเมืองใหม่",
		"lat": 15.5639458,
		"lng": 105.3599568
	 ,"country": "ประเทศไทย" },
	{
		"id": "355",
		"zip": "34220",
		"city": "อุบลราชธานี",
		"district": "โขงเจียม",
		"lat": 15.4383436,
		"lng": 105.5239912
	 ,"country": "ประเทศไทย" },
	{
		"id": "356",
		"zip": "34150",
		"city": "อุบลราชธานี",
		"district": "เขื่องใน",
		"lat": 15.4113503,
		"lng": 104.5467528
	 ,"country": "ประเทศไทย" },
	{
		"id": "357",
		"zip": "34320",
		"city": "อุบลราชธานี",
		"district": "เขื่องใน",
		"lat": 15.5018468,
		"lng": 104.464953
	 ,"country": "ประเทศไทย" },
	{
		"id": "358",
		"zip": "34170",
		"city": "อุบลราชธานี",
		"district": "เขมราฐ",
		"lat": 15.8923683,
		"lng": 105.1858696
	 ,"country": "ประเทศไทย" },
	{
		"id": "359",
		"zip": "34160",
		"city": "อุบลราชธานี",
		"district": "เดชอุดม",
		"lat": 14.8548457,
		"lng": 105.0791228
	 ,"country": "ประเทศไทย" },
	{
		"id": "360",
		"zip": "34280",
		"city": "อุบลราชธานี",
		"district": "นาจะหลวย",
		"lat": 14.503619,
		"lng": 105.2428853
	 ,"country": "ประเทศไทย" },
	{
		"id": "361",
		"zip": "34260",
		"city": "อุบลราชธานี",
		"district": "น้ำยืน",
		"lat": 14.4010715,
		"lng": 105.0791228
	 ,"country": "ประเทศไทย" },
	{
		"id": "362",
		"zip": "34230",
		"city": "อุบลราชธานี",
		"district": "บุณฑริก",
		"lat": 14.7451613,
		"lng": 105.3599568
	 ,"country": "ประเทศไทย" },
	{
		"id": "363",
		"zip": "34130",
		"city": "อุบลราชธานี",
		"district": "ตระการพืชผล",
		"lat": 15.5837056,
		"lng": 105.0791228
	 ,"country": "ประเทศไทย" },
	{
		"id": "364",
		"zip": "34270",
		"city": "อุบลราชธานี",
		"district": "กุดข้าวปุ้น",
		"lat": 15.8366515,
		"lng": 105.0557415
	 ,"country": "ประเทศไทย" },
	{
		"id": "365",
		"zip": "34140",
		"city": "อุบลราชธานี",
		"district": "ม่วงสามสิบ",
		"lat": 15.5058041,
		"lng": 104.7170954
	 ,"country": "ประเทศไทย" },
	{
		"id": "366",
		"zip": "34190",
		"city": "อุบลราชธานี",
		"district": "วารินชำราบ",
		"lat": 15.1997052,
		"lng": 104.8571368
	 ,"country": "ประเทศไทย" },
	{
		"id": "367",
		"zip": "34310",
		"city": "อุบลราชธานี",
		"district": "วารินชำราบ",
		"lat": 15.116321,
		"lng": 104.7404269
	 ,"country": "ประเทศไทย" },
	{
		"id": "368",
		"zip": "34110",
		"city": "อุบลราชธานี",
		"district": "พิบูลมังสาหาร",
		"lat": 15.2474826,
		"lng": 105.2320501
	 ,"country": "ประเทศไทย" },
	{
		"id": "369",
		"zip": "34330",
		"city": "อุบลราชธานี",
		"district": "ตาลสุม",
		"lat": 15.3226604,
		"lng": 105.1434387
	 ,"country": "ประเทศไทย" },
	{
		"id": "370",
		"zip": "34340",
		"city": "อุบลราชธานี",
		"district": "โพธิ์ไทร",
		"lat": 15.8464444,
		"lng": 105.2799215
	 ,"country": "ประเทศไทย" },
	{
		"id": "371",
		"zip": "34360",
		"city": "อุบลราชธานี",
		"district": "สำโรง",
		"lat": 15.0221073,
		"lng": 104.7871004
	 ,"country": "ประเทศไทย" },
	{
		"id": "372",
		"zip": "34000",
		"city": "อุบลราชธานี",
		"district": "ดอนมดแดง",
		"lat": 15.2905556,
		"lng": 105.0525
	 ,"country": "ประเทศไทย" },
	{
		"id": "373",
		"zip": "34350",
		"city": "อุบลราชธานี",
		"district": "สิรินธร",
		"lat": 15.0947394,
		"lng": 105.3950939
	 ,"country": "ประเทศไทย" },
	{
		"id": "374",
		"zip": "34160",
		"city": "อุบลราชธานี",
		"district": "ทุ่งศรีอุดม",
		"lat": 14.7520587,
		"lng": 104.9155243
	 ,"country": "ประเทศไทย" },
	{
		"id": "375",
		"zip": "34160",
		"city": "อุบลราชธานี",
		"district": "นาเยีย",
		"lat": 15.0230007,
		"lng": 105.1142011
	 ,"country": "ประเทศไทย" },
	{
		"id": "376",
		"zip": "34170",
		"city": "อุบลราชธานี",
		"district": "นาตาล",
		"lat": 15.8991237,
		"lng": 105.3014109
	 ,"country": "ประเทศไทย" },
	{
		"id": "377",
		"zip": "34000",
		"city": "อุบลราชธานี",
		"district": "เหล่าเสือโก้ก",
		"lat": 15.4283226,
		"lng": 104.9330448
	 ,"country": "ประเทศไทย" },
	{
		"id": "378",
		"zip": "34190",
		"city": "อุบลราชธานี",
		"district": "สว่างวีระวงศ์",
		"lat": 15.2432339,
		"lng": 105.0557415
	 ,"country": "ประเทศไทย" },
	{
		"id": "379",
		"zip": "34260",
		"city": "อุบลราชธานี",
		"district": "น้ำขุ่น",
		"lat": 14.5946094,
		"lng": 104.8921668
	 ,"country": "ประเทศไทย" },
	{
		"id": "380",
		"zip": "35000",
		"city": "ยโสธร",
		"district": "เมืองยโสธร",
		"lat": 15.7983959,
		"lng": 104.1495096
	 ,"country": "ประเทศไทย" },
	{
		"id": "381",
		"zip": "35170",
		"city": "ยโสธร",
		"district": "ทรายมูล",
		"lat": 15.9753775,
		"lng": 104.204716
	 ,"country": "ประเทศไทย" },
	{
		"id": "382",
		"zip": "35140",
		"city": "ยโสธร",
		"district": "กุดชุม",
		"lat": 16.0577566,
		"lng": 104.3442794
	 ,"country": "ประเทศไทย" },
	{
		"id": "383",
		"zip": "35110",
		"city": "ยโสธร",
		"district": "คำเขื่อนแก้ว",
		"lat": 15.6551836,
		"lng": 104.3073234
	 ,"country": "ประเทศไทย" },
	{
		"id": "384",
		"zip": "35180",
		"city": "ยโสธร",
		"district": "คำเขื่อนแก้ว",
		"lat": 15.6701671,
		"lng": 104.4143242
	 ,"country": "ประเทศไทย" },
	{
		"id": "385",
		"zip": "35150",
		"city": "ยโสธร",
		"district": "ป่าติ้ว",
		"lat": 15.8359591,
		"lng": 104.4024704
	 ,"country": "ประเทศไทย" },
	{
		"id": "386",
		"zip": "35130",
		"city": "ยโสธร",
		"district": "มหาชนะชัย",
		"lat": 15.5246282,
		"lng": 104.262851
	 ,"country": "ประเทศไทย" },
	{
		"id": "387",
		"zip": "35160",
		"city": "ยโสธร",
		"district": "ค้อวัง",
		"lat": 15.3652968,
		"lng": 104.3384616
	 ,"country": "ประเทศไทย" },
	{
		"id": "388",
		"zip": "35120",
		"city": "ยโสธร",
		"district": "เลิงนกทา",
		"lat": 16.171991,
		"lng": 104.5189214
	 ,"country": "ประเทศไทย" },
	{
		"id": "389",
		"zip": "35120",
		"city": "ยโสธร",
		"district": "ไทยเจริญ",
		"lat": 16.0690115,
		"lng": 104.4315746
	 ,"country": "ประเทศไทย" },
	{
		"id": "390",
		"zip": "36000",
		"city": "ชัยภูมิ",
		"district": "เมืองชัยภูมิ",
		"lat": 15.8675815,
		"lng": 102.026135
	 ,"country": "ประเทศไทย" },
	{
		"id": "391",
		"zip": "36240",
		"city": "ชัยภูมิ",
		"district": "เมืองชัยภูมิ",
		"lat": 15.7021955,
		"lng": 102.0946818
	 ,"country": "ประเทศไทย" },
	{
		"id": "392",
		"zip": "36170",
		"city": "ชัยภูมิ",
		"district": "บ้านเขว้า",
		"lat": 15.7463121,
		"lng": 101.9233964
	 ,"country": "ประเทศไทย" },
	{
		"id": "393",
		"zip": "36140",
		"city": "ชัยภูมิ",
		"district": "คอนสวรรค์",
		"lat": 15.9443409,
		"lng": 102.3005803
	 ,"country": "ประเทศไทย" },
	{
		"id": "394",
		"zip": "36120",
		"city": "ชัยภูมิ",
		"district": "เกษตรสมบูรณ์",
		"lat": 16.2426241,
		"lng": 101.9348069
	 ,"country": "ประเทศไทย" },
	{
		"id": "395",
		"zip": "36210",
		"city": "ชัยภูมิ",
		"district": "หนองบัวแดง",
		"lat": 16.0908333,
		"lng": 101.7969444
	 ,"country": "ประเทศไทย" },
	{
		"id": "396",
		"zip": "36130",
		"city": "ชัยภูมิ",
		"district": "จัตุรัส",
		"lat": 15.6006885,
		"lng": 101.8435568
	 ,"country": "ประเทศไทย" },
	{
		"id": "397",
		"zip": "36220",
		"city": "ชัยภูมิ",
		"district": "จัตุรัส",
		"lat": 15.5690426,
		"lng": 101.8562733
	 ,"country": "ประเทศไทย" },
	{
		"id": "398",
		"zip": "36160",
		"city": "ชัยภูมิ",
		"district": "บำเหน็จณรงค์",
		"lat": 15.442702,
		"lng": 101.688248
	 ,"country": "ประเทศไทย" },
	{
		"id": "399",
		"zip": "36220",
		"city": "ชัยภูมิ",
		"district": "บำเหน็จณรงค์",
		"lat": 15.442702,
		"lng": 101.688248
	 ,"country": "ประเทศไทย" },
	{
		"id": "400",
		"zip": "36250",
		"city": "ชัยภูมิ",
		"district": "หนองบัวระเหว",
		"lat": 15.7538158,
		"lng": 101.7865654
	 ,"country": "ประเทศไทย" },
	{
		"id": "401",
		"zip": "36230",
		"city": "ชัยภูมิ",
		"district": "เทพสถิต",
		"lat": 15.363868,
		"lng": 101.460769
	 ,"country": "ประเทศไทย" },
	{
		"id": "402",
		"zip": "36110",
		"city": "ชัยภูมิ",
		"district": "ภูเขียว",
		"lat": 16.3763389,
		"lng": 102.1287289
	 ,"country": "ประเทศไทย" },
	{
		"id": "403",
		"zip": "36190",
		"city": "ชัยภูมิ",
		"district": "บ้านแท่น",
		"lat": 16.3793702,
		"lng": 102.3692982
	 ,"country": "ประเทศไทย" },
	{
		"id": "404",
		"zip": "36150",
		"city": "ชัยภูมิ",
		"district": "แก้งคร้อ",
		"lat": 16.1344075,
		"lng": 102.2090224
	 ,"country": "ประเทศไทย" },
	{
		"id": "405",
		"zip": "36180",
		"city": "ชัยภูมิ",
		"district": "คอนสาร",
		"lat": 16.6005008,
		"lng": 101.9040309
	 ,"country": "ประเทศไทย" },
	{
		"id": "406",
		"zip": "36260",
		"city": "ชัยภูมิ",
		"district": "ภักดีชุมพล",
		"lat": 16.0168745,
		"lng": 101.4112049
	 ,"country": "ประเทศไทย" },
	{
		"id": "407",
		"zip": "36130",
		"city": "ชัยภูมิ",
		"district": "เนินสง่า",
		"lat": 15.568898,
		"lng": 102.0032957
	 ,"country": "ประเทศไทย" },
	{
		"id": "408",
		"zip": "36130",
		"city": "ชัยภูมิ",
		"district": "ซับใหญ่",
		"lat": 15.6413889,
		"lng": 101.6172222
	 ,"country": "ประเทศไทย" },
	{
		"id": "409",
		"zip": "37000",
		"city": "อำนาจเจริญ",
		"district": "เมืองอำนาจเจริญ",
		"lat": 15.8656422,
		"lng": 104.6257269
	 ,"country": "ประเทศไทย" },
	{
		"id": "410",
		"zip": "37210",
		"city": "อำนาจเจริญ",
		"district": "ชานุมาน",
		"lat": 16.1458061,
		"lng": 104.8921668
	 ,"country": "ประเทศไทย" },
	{
		"id": "411",
		"zip": "37110",
		"city": "อำนาจเจริญ",
		"district": "ปทุมราชวงศา",
		"lat": 15.8924912,
		"lng": 104.9049108
	 ,"country": "ประเทศไทย" },
	{
		"id": "412",
		"zip": "37180",
		"city": "อำนาจเจริญ",
		"district": "พนา",
		"lat": 15.6729405,
		"lng": 104.8629746
	 ,"country": "ประเทศไทย" },
	{
		"id": "413",
		"zip": "37290",
		"city": "อำนาจเจริญ",
		"district": "เสนางคนิคม",
		"lat": 16.0459858,
		"lng": 104.6821048
	 ,"country": "ประเทศไทย" },
	{
		"id": "414",
		"zip": "37240",
		"city": "อำนาจเจริญ",
		"district": "หัวตะพาน",
		"lat": 15.6891238,
		"lng": 104.5422225
	 ,"country": "ประเทศไทย" },
	{
		"id": "415",
		"zip": "37000",
		"city": "อำนาจเจริญ",
		"district": "ลืออำนาจ",
		"lat": 15.7221906,
		"lng": 104.7287607
	 ,"country": "ประเทศไทย" },
	{
		"id": "416",
		"zip": "38000",
		"city": "บึงกาฬ",
		"district": "เมืองบึงกาฬ",
		"lat": 18.3608748,
		"lng": 103.6464504
	 ,"country": "ประเทศไทย" },
	{
		"id": "417",
		"zip": "38180",
		"city": "บึงกาฬ",
		"district": "พรเจริญ",
		"lat": 18.1510352,
		"lng": 103.5736317
	 ,"country": "ประเทศไทย" },
	{
		"id": "418",
		"zip": "38170",
		"city": "บึงกาฬ",
		"district": "โซ่พิสัย",
		"lat": 18.2885872,
		"lng": 103.7969833
	 ,"country": "ประเทศไทย" },
	{
		"id": "419",
		"zip": "38150",
		"city": "บึงกาฬ",
		"district": "เซกา",
		"lat": 17.9897681,
		"lng": 103.9376021
	 ,"country": "ประเทศไทย" },
	{
		"id": "420",
		"zip": "38190",
		"city": "บึงกาฬ",
		"district": "ปากคาด",
		"lat": 18.3264671,
		"lng": 103.3201886
	 ,"country": "ประเทศไทย" },
	{
		"id": "421",
		"zip": "38220",
		"city": "บึงกาฬ",
		"district": "บึงโขงหลง",
		"lat": 18.0152778,
		"lng": 104.0216667
	 ,"country": "ประเทศไทย" },
	{
		"id": "422",
		"zip": "38210",
		"city": "บึงกาฬ",
		"district": "ศรีวิไล",
		"lat": 18.2885872,
		"lng": 103.7969833
	 ,"country": "ประเทศไทย" },
	{
		"id": "423",
		"zip": "38000",
		"city": "บึงกาฬ",
		"district": "บุ่งคล้า",
		"lat": 18.2538823,
		"lng": 103.9724141
	 ,"country": "ประเทศไทย" },
	{
		"id": "424",
		"zip": "39000",
		"city": "หนองบัวลำภู",
		"district": "เมืองหนองบัวลำภู",
		"lat": 17.2218369,
		"lng": 102.4260602
	 ,"country": "ประเทศไทย" },
	{
		"id": "425",
		"zip": "39170",
		"city": "หนองบัวลำภู",
		"district": "นากลาง",
		"lat": 17.2468691,
		"lng": 102.2090224
	 ,"country": "ประเทศไทย" },
	{
		"id": "426",
		"zip": "39350",
		"city": "หนองบัวลำภู",
		"district": "นากลาง",
		"lat": 17.3944044,
		"lng": 102.2662372
	 ,"country": "ประเทศไทย" },
	{
		"id": "427",
		"zip": "39140",
		"city": "หนองบัวลำภู",
		"district": "โนนสัง",
		"lat": 16.9485259,
		"lng": 102.5785297
	 ,"country": "ประเทศไทย" },
	{
		"id": "428",
		"zip": "39180",
		"city": "หนองบัวลำภู",
		"district": "ศรีบุญเรือง",
		"lat": 16.9292845,
		"lng": 102.2915983
	 ,"country": "ประเทศไทย" },
	{
		"id": "429",
		"zip": "39270",
		"city": "หนองบัวลำภู",
		"district": "สุวรรณคูหา",
		"lat": 17.5655556,
		"lng": 102.2722222
	 ,"country": "ประเทศไทย" },
	{
		"id": "430",
		"zip": "39170",
		"city": "หนองบัวลำภู",
		"district": "นาวัง",
		"lat": 17.3263608,
		"lng": 102.0489791
	 ,"country": "ประเทศไทย" },
	{
		"id": "431",
		"zip": "40000",
		"city": "ขอนแก่น",
		"district": "เมืองขอนแก่น",
		"lat": 16.4549378,
		"lng": 102.8563594
	 ,"country": "ประเทศไทย" },
	{
		"id": "432",
		"zip": "40260",
		"city": "ขอนแก่น",
		"district": "เมืองขอนแก่น",
		"lat": 16.316276,
		"lng": 102.8399799
	 ,"country": "ประเทศไทย" },
	{
		"id": "433",
		"zip": "40270",
		"city": "ขอนแก่น",
		"district": "บ้านฝาง",
		"lat": 16.4504042,
		"lng": 102.6402895
	 ,"country": "ประเทศไทย" },
	{
		"id": "434",
		"zip": "40320",
		"city": "ขอนแก่น",
		"district": "พระยืน",
		"lat": 16.3288881,
		"lng": 102.6331035
	 ,"country": "ประเทศไทย" },
	{
		"id": "435",
		"zip": "40210",
		"city": "ขอนแก่น",
		"district": "หนองเรือ",
		"lat": 16.5154623,
		"lng": 102.4151335
	 ,"country": "ประเทศไทย" },
	{
		"id": "436",
		"zip": "40240",
		"city": "ขอนแก่น",
		"district": "หนองเรือ",
		"lat": 16.4174111,
		"lng": 102.5068597
	 ,"country": "ประเทศไทย" },
	{
		"id": "437",
		"zip": "40130",
		"city": "ขอนแก่น",
		"district": "ชุมแพ",
		"lat": 16.5780985,
		"lng": 102.1404037
	 ,"country": "ประเทศไทย" },
	{
		"id": "438",
		"zip": "40290",
		"city": "ขอนแก่น",
		"district": "ชุมแพ",
		"lat": 16.6788574,
		"lng": 102.0032957
	 ,"country": "ประเทศไทย" },
	{
		"id": "439",
		"zip": "40220",
		"city": "ขอนแก่น",
		"district": "สีชมพู",
		"lat": 16.8490554,
		"lng": 102.1755941
	 ,"country": "ประเทศไทย" },
	{
		"id": "440",
		"zip": "40140",
		"city": "ขอนแก่น",
		"district": "น้ำพอง",
		"lat": 16.7157136,
		"lng": 102.9205295
	 ,"country": "ประเทศไทย" },
	{
		"id": "441",
		"zip": "40310",
		"city": "ขอนแก่น",
		"district": "น้ำพอง",
		"lat": 16.6781124,
		"lng": 102.7824777
	 ,"country": "ประเทศไทย" },
	{
		"id": "442",
		"zip": "40250",
		"city": "ขอนแก่น",
		"district": "อุบลรัตน์",
		"lat": 16.7509121,
		"lng": 102.5412761
	 ,"country": "ประเทศไทย" },
	{
		"id": "443",
		"zip": "40170",
		"city": "ขอนแก่น",
		"district": "กระนวน",
		"lat": 16.6036472,
		"lng": 103.0472164
	 ,"country": "ประเทศไทย" },
	{
		"id": "444",
		"zip": "40110",
		"city": "ขอนแก่น",
		"district": "บ้านไผ่",
		"lat": 16.1169002,
		"lng": 102.7020218
	 ,"country": "ประเทศไทย" },
	{
		"id": "445",
		"zip": "40340",
		"city": "ขอนแก่น",
		"district": "เปือยน้อย",
		"lat": 15.879993,
		"lng": 102.9032643
	 ,"country": "ประเทศไทย" },
	{
		"id": "446",
		"zip": "40120",
		"city": "ขอนแก่น",
		"district": "พล",
		"lat": 15.8117,
		"lng": 102.5986597
	 ,"country": "ประเทศไทย" },
	{
		"id": "447",
		"zip": "40330",
		"city": "ขอนแก่น",
		"district": "แวงใหญ่",
		"lat": 15.911973,
		"lng": 102.4609873
	 ,"country": "ประเทศไทย" },
	{
		"id": "448",
		"zip": "40230",
		"city": "ขอนแก่น",
		"district": "แวงน้อย",
		"lat": 15.822376,
		"lng": 102.4151335
	 ,"country": "ประเทศไทย" },
	{
		"id": "449",
		"zip": "40190",
		"city": "ขอนแก่น",
		"district": "หนองสองห้อง",
		"lat": 15.6979174,
		"lng": 102.7709807
	 ,"country": "ประเทศไทย" },
	{
		"id": "450",
		"zip": "40150",
		"city": "ขอนแก่น",
		"district": "ภูเวียง",
		"lat": 16.6346564,
		"lng": 102.3870095
	 ,"country": "ประเทศไทย" },
	{
		"id": "451",
		"zip": "40160",
		"city": "ขอนแก่น",
		"district": "มัญจาคีรี",
		"lat": 16.2107446,
		"lng": 102.4839212
	 ,"country": "ประเทศไทย" },
	{
		"id": "452",
		"zip": "40180",
		"city": "ขอนแก่น",
		"district": "ชนบท",
		"lat": 16.0791772,
		"lng": 102.5838205
	 ,"country": "ประเทศไทย" },
	{
		"id": "453",
		"zip": "40280",
		"city": "ขอนแก่น",
		"district": "เขาสวนกวาง",
		"lat": 16.9096084,
		"lng": 102.7824777
	 ,"country": "ประเทศไทย" },
	{
		"id": "454",
		"zip": "40350",
		"city": "ขอนแก่น",
		"district": "ภูผาม่าน",
		"lat": 16.6401692,
		"lng": 101.9090201
	 ,"country": "ประเทศไทย" },
	{
		"id": "455",
		"zip": "40170",
		"city": "ขอนแก่น",
		"district": "ซำสูง",
		"lat": 16.5682547,
		"lng": 103.0587399
	 ,"country": "ประเทศไทย" },
	{
		"id": "456",
		"zip": "40160",
		"city": "ขอนแก่น",
		"district": "โคกโพธิ์ไชย",
		"lat": 16.0557992,
		"lng": 102.3692982
	 ,"country": "ประเทศไทย" },
	{
		"id": "457",
		"zip": "40150",
		"city": "ขอนแก่น",
		"district": "หนองนาคำ",
		"lat": 16.8134948,
		"lng": 102.3403027
	 ,"country": "ประเทศไทย" },
	{
		"id": "458",
		"zip": "40110",
		"city": "ขอนแก่น",
		"district": "บ้านแฮด",
		"lat": 16.2118723,
		"lng": 102.7537372
	 ,"country": "ประเทศไทย" },
	{
		"id": "459",
		"zip": "40110",
		"city": "ขอนแก่น",
		"district": "โนนศิลา",
		"lat": 15.9581614,
		"lng": 102.6560717
	 ,"country": "ประเทศไทย" },
	{
		"id": "460",
		"zip": "40150",
		"city": "ขอนแก่น",
		"district": "เวียงเก่า",
		"lat": 16.7089808,
		"lng": 102.2776838
	 ,"country": "ประเทศไทย" },
	{
		"id": "461",
		"zip": "41000",
		"city": "อุดรธานี",
		"district": "เมืองอุดรธานี",
		"lat": 17.3980165,
		"lng": 102.7594847
	 ,"country": "ประเทศไทย" },
	{
		"id": "462",
		"zip": "41330",
		"city": "อุดรธานี",
		"district": "เมืองอุดรธานี",
		"lat": 17.2745616,
		"lng": 102.8744945
	 ,"country": "ประเทศไทย" },
	{
		"id": "463",
		"zip": "41250",
		"city": "อุดรธานี",
		"district": "กุดจับ",
		"lat": 17.4156306,
		"lng": 102.4839212
	 ,"country": "ประเทศไทย" },
	{
		"id": "464",
		"zip": "41360",
		"city": "อุดรธานี",
		"district": "หนองวัวซอ",
		"lat": 17.2869444,
		"lng": 102.6002778
	 ,"country": "ประเทศไทย" },
	{
		"id": "465",
		"zip": "41220",
		"city": "อุดรธานี",
		"district": "หนองวัวซอ",
		"lat": 17.3351129,
		"lng": 102.5072321
	 ,"country": "ประเทศไทย" },
	{
		"id": "466",
		"zip": "41110",
		"city": "อุดรธานี",
		"district": "กุมภวาปี",
		"lat": 17.0801779,
		"lng": 103.0126523
	 ,"country": "ประเทศไทย" },
	{
		"id": "467",
		"zip": "41370",
		"city": "อุดรธานี",
		"district": "กุมภวาปี",
		"lat": 17.1324799,
		"lng": 102.9205295
	 ,"country": "ประเทศไทย" },
	{
		"id": "468",
		"zip": "41240",
		"city": "อุดรธานี",
		"district": "โนนสะอาด",
		"lat": 16.9656259,
		"lng": 102.9032643
	 ,"country": "ประเทศไทย" },
	{
		"id": "469",
		"zip": "41130",
		"city": "อุดรธานี",
		"district": "หนองหาน",
		"lat": 17.3645735,
		"lng": 103.0933171
	 ,"country": "ประเทศไทย" },
	{
		"id": "470",
		"zip": "41320",
		"city": "อุดรธานี",
		"district": "หนองหาน",
		"lat": 17.3893466,
		"lng": 103.2432632
	 ,"country": "ประเทศไทย" },
	{
		"id": "471",
		"zip": "41310",
		"city": "อุดรธานี",
		"district": "ทุ่งฝน",
		"lat": 17.4851808,
		"lng": 103.1971067
	 ,"country": "ประเทศไทย" },
	{
		"id": "472",
		"zip": "41290",
		"city": "อุดรธานี",
		"district": "ไชยวาน",
		"lat": 17.2009231,
		"lng": 103.2894368
	 ,"country": "ประเทศไทย" },
	{
		"id": "473",
		"zip": "41230",
		"city": "อุดรธานี",
		"district": "ศรีธาตุ",
		"lat": 16.9767891,
		"lng": 103.2142418
	 ,"country": "ประเทศไทย" },
	{
		"id": "474",
		"zip": "41280",
		"city": "อุดรธานี",
		"district": "วังสามหมอ",
		"lat": 16.955592,
		"lng": 103.4421742
	 ,"country": "ประเทศไทย" },
	{
		"id": "475",
		"zip": "41190",
		"city": "อุดรธานี",
		"district": "บ้านดุง",
		"lat": 17.7032238,
		"lng": 103.2317225
	 ,"country": "ประเทศไทย" },
	{
		"id": "476",
		"zip": "41160",
		"city": "อุดรธานี",
		"district": "บ้านผือ",
		"lat": 17.6851513,
		"lng": 102.4495221
	 ,"country": "ประเทศไทย" },
	{
		"id": "477",
		"zip": "41210",
		"city": "อุดรธานี",
		"district": "น้ำโสม",
		"lat": 17.7338889,
		"lng": 102.0772222
	 ,"country": "ประเทศไทย" },
	{
		"id": "478",
		"zip": "41150",
		"city": "อุดรธานี",
		"district": "เพ็ญ",
		"lat": 17.6769513,
		"lng": 102.932041
	 ,"country": "ประเทศไทย" },
	{
		"id": "479",
		"zip": "41260",
		"city": "อุดรธานี",
		"district": "สร้างคอม",
		"lat": 17.8054891,
		"lng": 103.0933171
	 ,"country": "ประเทศไทย" },
	{
		"id": "480",
		"zip": "41340",
		"city": "อุดรธานี",
		"district": "หนองแสง",
		"lat": 17.4905125,
		"lng": 102.8263951
	 ,"country": "ประเทศไทย" },
	{
		"id": "481",
		"zip": "41380",
		"city": "อุดรธานี",
		"district": "นายูง",
		"lat": 17.1037919,
		"lng": 103.0134597
	 ,"country": "ประเทศไทย" },
	{
		"id": "482",
		"zip": "41130",
		"city": "อุดรธานี",
		"district": "พิบูลย์รักษ์",
		"lat": 17.4944308,
		"lng": 103.0587399
	 ,"country": "ประเทศไทย" },
	{
		"id": "483",
		"zip": "41130",
		"city": "อุดรธานี",
		"district": "กู่แก้ว",
		"lat": 17.1637859,
		"lng": 103.1509672
	 ,"country": "ประเทศไทย" },
	{
		"id": "484",
		"zip": "41110",
		"city": "อุดรธานี",
		"district": "ประจักษ์ศิลปาคม",
		"lat": 17.2562283,
		"lng": 102.9780981
	 ,"country": "ประเทศไทย" },
	{
		"id": "485",
		"zip": "42000",
		"city": "เลย",
		"district": "เมืองเลย",
		"lat": 17.4605379,
		"lng": 101.7523854
	 ,"country": "ประเทศไทย" },
	{
		"id": "486",
		"zip": "42100",
		"city": "เลย",
		"district": "เมืองเลย",
		"lat": 17.6249528,
		"lng": 101.7296049
	 ,"country": "ประเทศไทย" },
	{
		"id": "487",
		"zip": "42210",
		"city": "เลย",
		"district": "นาด้วง",
		"lat": 17.4847909,
		"lng": 101.9428012
	 ,"country": "ประเทศไทย" },
	{
		"id": "488",
		"zip": "42110",
		"city": "เลย",
		"district": "เชียงคาน",
		"lat": 17.8759173,
		"lng": 101.6271544
	 ,"country": "ประเทศไทย" },
	{
		"id": "489",
		"zip": "42150",
		"city": "เลย",
		"district": "ปากชม",
		"lat": 18.0226395,
		"lng": 101.8812018
	 ,"country": "ประเทศไทย" },
	{
		"id": "490",
		"zip": "42120",
		"city": "เลย",
		"district": "ด่านซ้าย",
		"lat": 17.2506701,
		"lng": 101.1504111
	 ,"country": "ประเทศไทย" },
	{
		"id": "491",
		"zip": "42170",
		"city": "เลย",
		"district": "นาแห้ว",
		"lat": 17.5263619,
		"lng": 100.9560676
	 ,"country": "ประเทศไทย" },
	{
		"id": "492",
		"zip": "42160",
		"city": "เลย",
		"district": "ภูเรือ",
		"lat": 17.5144444,
		"lng": 101.3441667
	 ,"country": "ประเทศไทย" },
	{
		"id": "493",
		"zip": "42140",
		"city": "เลย",
		"district": "ท่าลี่",
		"lat": 17.5971303,
		"lng": 101.4112049
	 ,"country": "ประเทศไทย" },
	{
		"id": "494",
		"zip": "42130",
		"city": "เลย",
		"district": "วังสะพุง",
		"lat": 17.3099032,
		"lng": 101.7409946
	 ,"country": "ประเทศไทย" },
	{
		"id": "495",
		"zip": "42180",
		"city": "เลย",
		"district": "ภูกระดึง",
		"lat": 16.8713889,
		"lng": 101.7186111
	 ,"country": "ประเทศไทย" },
	{
		"id": "496",
		"zip": "42230",
		"city": "เลย",
		"district": "ภูหลวง",
		"lat": 17.0935616,
		"lng": 101.6612934
	 ,"country": "ประเทศไทย" },
	{
		"id": "497",
		"zip": "42240",
		"city": "เลย",
		"district": "ผาขาว",
		"lat": 17.0502119,
		"lng": 102.0032957
	 ,"country": "ประเทศไทย" },
	{
		"id": "498",
		"zip": "42220",
		"city": "เลย",
		"district": "เอราวัณ",
		"lat": 17.3702095,
		"lng": 101.900579
	 ,"country": "ประเทศไทย" },
	{
		"id": "499",
		"zip": "42190",
		"city": "เลย",
		"district": "หนองหิน",
		"lat": 17.1074981,
		"lng": 101.8207566
	 ,"country": "ประเทศไทย" },
	{
		"id": "500",
		"zip": "43000",
		"city": "หนองคาย",
		"district": "เมืองหนองคาย",
		"lat": 17.8841733,
		"lng": 102.750128
	 ,"country": "ประเทศไทย" },
	{
		"id": "501",
		"zip": "43100",
		"city": "หนองคาย",
		"district": "เมืองหนองคาย",
		"lat": 17.74,
		"lng": 102.7055556
	 ,"country": "ประเทศไทย" },
	{
		"id": "502",
		"zip": "43110",
		"city": "หนองคาย",
		"district": "ท่าบ่อ",
		"lat": 17.8111448,
		"lng": 102.5699643
	 ,"country": "ประเทศไทย" },
	{
		"id": "503",
		"zip": "43120",
		"city": "หนองคาย",
		"district": "โพนพิสัย",
		"lat": 17.9747555,
		"lng": 103.0017133
	 ,"country": "ประเทศไทย" },
	{
		"id": "504",
		"zip": "43130",
		"city": "หนองคาย",
		"district": "ศรีเชียงใหม่",
		"lat": 17.9381572,
		"lng": 102.4953899
	 ,"country": "ประเทศไทย" },
	{
		"id": "505",
		"zip": "43160",
		"city": "หนองคาย",
		"district": "สังคม",
		"lat": 18.0153852,
		"lng": 102.1538632
	 ,"country": "ประเทศไทย" },
	{
		"id": "506",
		"zip": "43100",
		"city": "หนองคาย",
		"district": "สระใคร",
		"lat": 17.7061453,
		"lng": 102.7537372
	 ,"country": "ประเทศไทย" },
	{
		"id": "507",
		"zip": "43120",
		"city": "หนองคาย",
		"district": "เฝ้าไร่",
		"lat": 18.0002831,
		"lng": 103.3009828
	 ,"country": "ประเทศไทย" },
	{
		"id": "508",
		"zip": "43120",
		"city": "หนองคาย",
		"district": "รัตนวาปี",
		"lat": 18.2174678,
		"lng": 103.1855702
	 ,"country": "ประเทศไทย" },
	{
		"id": "509",
		"zip": "43130",
		"city": "หนองคาย",
		"district": "โพธิ์ตาก",
		"lat": 17.8494946,
		"lng": 102.4265952
	 ,"country": "ประเทศไทย" },
	{
		"id": "510",
		"zip": "44000",
		"city": "มหาสารคาม",
		"district": "เมืองมหาสารคาม",
		"lat": 16.1383681,
		"lng": 103.2894368
	 ,"country": "ประเทศไทย" },
	{
		"id": "511",
		"zip": "44190",
		"city": "มหาสารคาม",
		"district": "แกดำ",
		"lat": 16.1001934,
		"lng": 103.4007916
	 ,"country": "ประเทศไทย" },
	{
		"id": "512",
		"zip": "44140",
		"city": "มหาสารคาม",
		"district": "โกสุมพิสัย",
		"lat": 16.269546,
		"lng": 103.035694
	 ,"country": "ประเทศไทย" },
	{
		"id": "513",
		"zip": "44150",
		"city": "มหาสารคาม",
		"district": "กันทรวิชัย",
		"lat": 16.2795768,
		"lng": 103.2432632
	 ,"country": "ประเทศไทย" },
	{
		"id": "514",
		"zip": "44160",
		"city": "มหาสารคาม",
		"district": "เชียงยืน",
		"lat": 16.4159483,
		"lng": 103.0933171
	 ,"country": "ประเทศไทย" },
	{
		"id": "515",
		"zip": "44130",
		"city": "มหาสารคาม",
		"district": "บรบือ",
		"lat": 16.0915907,
		"lng": 103.1163739
	 ,"country": "ประเทศไทย" },
	{
		"id": "516",
		"zip": "44170",
		"city": "มหาสารคาม",
		"district": "นาเชือก",
		"lat": 15.7734482,
		"lng": 103.0472164
	 ,"country": "ประเทศไทย" },
	{
		"id": "517",
		"zip": "44110",
		"city": "มหาสารคาม",
		"district": "พยัคฆภูมิพิสัย",
		"lat": 15.5216056,
		"lng": 103.2201828
	 ,"country": "ประเทศไทย" },
	{
		"id": "518",
		"zip": "44120",
		"city": "มหาสารคาม",
		"district": "วาปีปทุม",
		"lat": 15.8787325,
		"lng": 103.3419638
	 ,"country": "ประเทศไทย" },
	{
		"id": "519",
		"zip": "44180",
		"city": "มหาสารคาม",
		"district": "นาดูน",
		"lat": 15.7223021,
		"lng": 103.2259525
	 ,"country": "ประเทศไทย" },
	{
		"id": "520",
		"zip": "44210",
		"city": "มหาสารคาม",
		"district": "ยางสีสุราช",
		"lat": 15.6406722,
		"lng": 103.1509672
	 ,"country": "ประเทศไทย" },
	{
		"id": "521",
		"zip": "44130",
		"city": "มหาสารคาม",
		"district": "กุดรัง",
		"lat": 16.1185799,
		"lng": 103.0249524
	 ,"country": "ประเทศไทย" },
	{
		"id": "522",
		"zip": "44160",
		"city": "มหาสารคาม",
		"district": "ชื่นชม",
		"lat": 16.5515741,
		"lng": 103.139435
	 ,"country": "ประเทศไทย" },
	{
		"id": "523",
		"zip": "45000",
		"city": "ร้อยเอ็ด",
		"district": "เมืองร้อยเอ็ด",
		"lat": 16.0537909,
		"lng": 103.6519972
	 ,"country": "ประเทศไทย" },
	{
		"id": "524",
		"zip": "45150",
		"city": "ร้อยเอ็ด",
		"district": "เกษตรวิสัย",
		"lat": 15.6580509,
		"lng": 103.6131203
	 ,"country": "ประเทศไทย" },
	{
		"id": "525",
		"zip": "45190",
		"city": "ร้อยเอ็ด",
		"district": "ปทุมรัตต์",
		"lat": 15.6021563,
		"lng": 103.4049445
	 ,"country": "ประเทศไทย" },
	{
		"id": "526",
		"zip": "45180",
		"city": "ร้อยเอ็ด",
		"district": "จตุรพักตรพิมาน",
		"lat": 15.8447115,
		"lng": 103.5668302
	 ,"country": "ประเทศไทย" },
	{
		"id": "527",
		"zip": "45170",
		"city": "ร้อยเอ็ด",
		"district": "ธวัชบุรี",
		"lat": 16.1110285,
		"lng": 103.8042382
	 ,"country": "ประเทศไทย" },
	{
		"id": "528",
		"zip": "45140",
		"city": "ร้อยเอ็ด",
		"district": "พนมไพร",
		"lat": 15.6803037,
		"lng": 104.1146479
	 ,"country": "ประเทศไทย" },
	{
		"id": "529",
		"zip": "45110",
		"city": "ร้อยเอ็ด",
		"district": "โพนทอง",
		"lat": 16.2143664,
		"lng": 103.9120099
	 ,"country": "ประเทศไทย" },
	{
		"id": "530",
		"zip": "45230",
		"city": "ร้อยเอ็ด",
		"district": "โพธิ์ชัย",
		"lat": 16.3818183,
		"lng": 103.7984428
	 ,"country": "ประเทศไทย" },
	{
		"id": "531",
		"zip": "45210",
		"city": "ร้อยเอ็ด",
		"district": "หนองพอก",
		"lat": 16.3413382,
		"lng": 104.2279672
	 ,"country": "ประเทศไทย" },
	{
		"id": "532",
		"zip": "45120",
		"city": "ร้อยเอ็ด",
		"district": "เสลภูมิ",
		"lat": 16.0474745,
		"lng": 103.98402
	 ,"country": "ประเทศไทย" },
	{
		"id": "533",
		"zip": "45130",
		"city": "ร้อยเอ็ด",
		"district": "สุวรรณภูมิ",
		"lat": 15.5789814,
		"lng": 103.7752634
	 ,"country": "ประเทศไทย" },
	{
		"id": "534",
		"zip": "45220",
		"city": "ร้อยเอ็ด",
		"district": "เมืองสรวง",
		"lat": 15.7869648,
		"lng": 103.752088
	 ,"country": "ประเทศไทย" },
	{
		"id": "535",
		"zip": "45240",
		"city": "ร้อยเอ็ด",
		"district": "โพนทราย",
		"lat": 15.4998892,
		"lng": 103.9376021
	 ,"country": "ประเทศไทย" },
	{
		"id": "536",
		"zip": "45160",
		"city": "ร้อยเอ็ด",
		"district": "อาจสามารถ",
		"lat": 15.836139,
		"lng": 103.8796018
	 ,"country": "ประเทศไทย" },
	{
		"id": "537",
		"zip": "45250",
		"city": "ร้อยเอ็ด",
		"district": "เมยวดี",
		"lat": 16.3966621,
		"lng": 104.1756573
	 ,"country": "ประเทศไทย" },
	{
		"id": "538",
		"zip": "45000",
		"city": "ร้อยเอ็ด",
		"district": "ศรีสมเด็จ",
		"lat": 15.9706018,
		"lng": 103.4687168
	 ,"country": "ประเทศไทย" },
	{
		"id": "539",
		"zip": "45280",
		"city": "ร้อยเอ็ด",
		"district": "ศรีสมเด็จ",
		"lat": 15.9432031,
		"lng": 103.5103481
	 ,"country": "ประเทศไทย" },
	{
		"id": "540",
		"zip": "45000",
		"city": "ร้อยเอ็ด",
		"district": "จังหาร",
		"lat": 16.1360901,
		"lng": 103.5957596
	 ,"country": "ประเทศไทย" },
	{
		"id": "541",
		"zip": "45000",
		"city": "ร้อยเอ็ด",
		"district": "เชียงขวัญ",
		"lat": 16.1820403,
		"lng": 103.7214955
	 ,"country": "ประเทศไทย" },
	{
		"id": "542",
		"zip": "45170",
		"city": "ร้อยเอ็ด",
		"district": "เชียงขวัญ",
		"lat": 16.1546945,
		"lng": 103.752088
	 ,"country": "ประเทศไทย" },
	{
		"id": "543",
		"zip": "45140",
		"city": "ร้อยเอ็ด",
		"district": "หนองฮี",
		"lat": 15.6221834,
		"lng": 103.9956269
	 ,"country": "ประเทศไทย" },
	{
		"id": "544",
		"zip": "45170",
		"city": "ร้อยเอ็ด",
		"district": "ทุ่งเขาหลวง",
		"lat": 16.0214032,
		"lng": 103.8564085
	 ,"country": "ประเทศไทย" },
	{
		"id": "545",
		"zip": "46000",
		"city": "กาฬสินธุ์",
		"district": "เมืองกาฬสินธุ์",
		"lat": 16.438508,
		"lng": 103.5060994
	 ,"country": "ประเทศไทย" },
	{
		"id": "546",
		"zip": "46230",
		"city": "กาฬสินธุ์",
		"district": "นามน",
		"lat": 16.5553936,
		"lng": 103.7868526
	 ,"country": "ประเทศไทย" },
	{
		"id": "547",
		"zip": "46130",
		"city": "กาฬสินธุ์",
		"district": "กมลาไสย",
		"lat": 16.3171804,
		"lng": 103.5552603
	 ,"country": "ประเทศไทย" },
	{
		"id": "548",
		"zip": "46210",
		"city": "กาฬสินธุ์",
		"district": "ร่องคำ",
		"lat": 16.2766583,
		"lng": 103.7347091
	 ,"country": "ประเทศไทย" },
	{
		"id": "549",
		"zip": "46110",
		"city": "กาฬสินธุ์",
		"district": "กุฉินารายณ์",
		"lat": 16.504382,
		"lng": 104.0304535
	 ,"country": "ประเทศไทย" },
	{
		"id": "550",
		"zip": "46160",
		"city": "กาฬสินธุ์",
		"district": "เขาวง",
		"lat": 16.6822686,
		"lng": 104.1233667
	 ,"country": "ประเทศไทย" },
	{
		"id": "551",
		"zip": "46120",
		"city": "กาฬสินธุ์",
		"district": "ยางตลาด",
		"lat": 16.4003968,
		"lng": 103.3712281
	 ,"country": "ประเทศไทย" },
	{
		"id": "552",
		"zip": "46170",
		"city": "กาฬสินธุ์",
		"district": "ห้วยเม็ก",
		"lat": 16.5564748,
		"lng": 103.2432632
	 ,"country": "ประเทศไทย" },
	{
		"id": "553",
		"zip": "46140",
		"city": "กาฬสินธุ์",
		"district": "สหัสขันธ์",
		"lat": 16.7323365,
		"lng": 103.5552603
	 ,"country": "ประเทศไทย" },
	{
		"id": "554",
		"zip": "46180",
		"city": "กาฬสินธุ์",
		"district": "คำม่วง",
		"lat": 16.9447497,
		"lng": 103.6594267
	 ,"country": "ประเทศไทย" },
	{
		"id": "555",
		"zip": "46190",
		"city": "กาฬสินธุ์",
		"district": "ท่าคันโท",
		"lat": 16.9331709,
		"lng": 103.2259525
	 ,"country": "ประเทศไทย" },
	{
		"id": "556",
		"zip": "46220",
		"city": "กาฬสินธุ์",
		"district": "หนองกุงศรี",
		"lat": 16.6335739,
		"lng": 103.3009828
	 ,"country": "ประเทศไทย" },
	{
		"id": "557",
		"zip": "46150",
		"city": "กาฬสินธุ์",
		"district": "สมเด็จ",
		"lat": 16.7274697,
		"lng": 103.7358989
	 ,"country": "ประเทศไทย" },
	{
		"id": "558",
		"zip": "46240",
		"city": "กาฬสินธุ์",
		"district": "ห้วยผึ้ง",
		"lat": 16.663973,
		"lng": 103.9071489
	 ,"country": "ประเทศไทย" },
	{
		"id": "559",
		"zip": "46180",
		"city": "กาฬสินธุ์",
		"district": "สามชัย",
		"lat": 16.863677,
		"lng": 103.5366457
	 ,"country": "ประเทศไทย" },
	{
		"id": "560",
		"zip": "46160",
		"city": "กาฬสินธุ์",
		"district": "นาคู",
		"lat": 16.8085029,
		"lng": 104.04787
	 ,"country": "ประเทศไทย" },
	{
		"id": "561",
		"zip": "46000",
		"city": "กาฬสินธุ์",
		"district": "ดอนจาน",
		"lat": 16.4232826,
		"lng": 103.6941672
	 ,"country": "ประเทศไทย" },
	{
		"id": "562",
		"zip": "46130",
		"city": "กาฬสินธุ์",
		"district": "ฆ้องชัย",
		"lat": 16.252555,
		"lng": 103.485862
	 ,"country": "ประเทศไทย" },
	{
		"id": "563",
		"zip": "47000",
		"city": "สกลนคร",
		"district": "เมืองสกลนคร",
		"lat": 17.1435494,
		"lng": 104.1233667
	 ,"country": "ประเทศไทย" },
	{
		"id": "564",
		"zip": "47220",
		"city": "สกลนคร",
		"district": "เมืองสกลนคร",
		"lat": 17.2457941,
		"lng": 103.98402
	 ,"country": "ประเทศไทย" },
	{
		"id": "565",
		"zip": "47230",
		"city": "สกลนคร",
		"district": "เมืองสกลนคร",
		"lat": 17.2259391,
		"lng": 104.262851
	 ,"country": "ประเทศไทย" },
	{
		"id": "566",
		"zip": "47210",
		"city": "สกลนคร",
		"district": "กุสุมาลย์",
		"lat": 17.3577323,
		"lng": 104.3559158
	 ,"country": "ประเทศไทย" },
	{
		"id": "567",
		"zip": "47230",
		"city": "สกลนคร",
		"district": "กุสุมาลย์",
		"lat": 17.3239443,
		"lng": 104.3442794
	 ,"country": "ประเทศไทย" },
	{
		"id": "568",
		"zip": "47180",
		"city": "สกลนคร",
		"district": "กุดบาก",
		"lat": 17.085,
		"lng": 103.8016667
	 ,"country": "ประเทศไทย" },
	{
		"id": "569",
		"zip": "47130",
		"city": "สกลนคร",
		"district": "พรรณานิคม",
		"lat": 17.3233062,
		"lng": 103.8680047
	 ,"country": "ประเทศไทย" },
	{
		"id": "570",
		"zip": "47220",
		"city": "สกลนคร",
		"district": "พรรณานิคม",
		"lat": 17.2457941,
		"lng": 103.98402
	 ,"country": "ประเทศไทย" },
	{
		"id": "571",
		"zip": "47160",
		"city": "สกลนคร",
		"district": "พังโคน",
		"lat": 17.375525,
		"lng": 103.6999581
	 ,"country": "ประเทศไทย" },
	{
		"id": "572",
		"zip": "47150",
		"city": "สกลนคร",
		"district": "วาริชภูมิ",
		"lat": 17.2361032,
		"lng": 103.6246954
	 ,"country": "ประเทศไทย" },
	{
		"id": "573",
		"zip": "47270",
		"city": "สกลนคร",
		"district": "นิคมน้ำอูน",
		"lat": 17.1727135,
		"lng": 103.7057493
	 ,"country": "ประเทศไทย" },
	{
		"id": "574",
		"zip": "47120",
		"city": "สกลนคร",
		"district": "วานรนิวาส",
		"lat": 17.644742,
		"lng": 103.7405019
	 ,"country": "ประเทศไทย" },
	{
		"id": "575",
		"zip": "47250",
		"city": "สกลนคร",
		"district": "คำตากล้า",
		"lat": 17.8143982,
		"lng": 103.7984428
	 ,"country": "ประเทศไทย" },
	{
		"id": "576",
		"zip": "47140",
		"city": "สกลนคร",
		"district": "บ้านม่วง",
		"lat": 17.9053046,
		"lng": 103.4974258
	 ,"country": "ประเทศไทย" },
	{
		"id": "577",
		"zip": "47170",
		"city": "สกลนคร",
		"district": "อากาศอำนวย",
		"lat": 17.686931,
		"lng": 103.9608091
	 ,"country": "ประเทศไทย" },
	{
		"id": "578",
		"zip": "47110",
		"city": "สกลนคร",
		"district": "สว่างแดนดิน",
		"lat": 17.4479326,
		"lng": 103.4049445
	 ,"country": "ประเทศไทย" },
	{
		"id": "579",
		"zip": "47240",
		"city": "สกลนคร",
		"district": "สว่างแดนดิน",
		"lat": 17.4567874,
		"lng": 103.6131203
	 ,"country": "ประเทศไทย" },
	{
		"id": "580",
		"zip": "47190",
		"city": "สกลนคร",
		"district": "ส่องดาว",
		"lat": 17.3397564,
		"lng": 103.4627375
	 ,"country": "ประเทศไทย" },
	{
		"id": "581",
		"zip": "47260",
		"city": "สกลนคร",
		"district": "เต่างอย",
		"lat": 16.993967,
		"lng": 104.1989038
	 ,"country": "ประเทศไทย" },
	{
		"id": "582",
		"zip": "47280",
		"city": "สกลนคร",
		"district": "โคกศรีสุพรรณ",
		"lat": 17.0380098,
		"lng": 104.3093759
	 ,"country": "ประเทศไทย" },
	{
		"id": "583",
		"zip": "47290",
		"city": "สกลนคร",
		"district": "เจริญศิลป์",
		"lat": 17.5650372,
		"lng": 103.5552603
	 ,"country": "ประเทศไทย" },
	{
		"id": "584",
		"zip": "47230",
		"city": "สกลนคร",
		"district": "โพนนาแก้ว",
		"lat": 17.2201778,
		"lng": 104.2909717
	 ,"country": "ประเทศไทย" },
	{
		"id": "585",
		"zip": "47180",
		"city": "สกลนคร",
		"district": "ภูพาน",
		"lat": 17.0950622,
		"lng": 103.9606994
	 ,"country": "ประเทศไทย" },
	{
		"id": "586",
		"zip": "48000",
		"city": "นครพนม",
		"district": "เมืองนครพนม",
		"lat": 17.3798237,
		"lng": 104.6821048
	 ,"country": "ประเทศไทย" },
	{
		"id": "587",
		"zip": "48160",
		"city": "นครพนม",
		"district": "ปลาปาก",
		"lat": 17.1843004,
		"lng": 104.5189214
	 ,"country": "ประเทศไทย" },
	{
		"id": "588",
		"zip": "48120",
		"city": "นครพนม",
		"district": "ท่าอุเทน",
		"lat": 17.6280795,
		"lng": 104.4490398
	 ,"country": "ประเทศไทย" },
	{
		"id": "589",
		"zip": "48140",
		"city": "นครพนม",
		"district": "บ้านแพง",
		"lat": 17.9630254,
		"lng": 104.222154
	 ,"country": "ประเทศไทย" },
	{
		"id": "590",
		"zip": "48110",
		"city": "นครพนม",
		"district": "ธาตุพนม",
		"lat": 16.9487975,
		"lng": 104.7248076
	 ,"country": "ประเทศไทย" },
	{
		"id": "591",
		"zip": "48170",
		"city": "นครพนม",
		"district": "เรณูนคร",
		"lat": 17.0471522,
		"lng": 104.6804334
	 ,"country": "ประเทศไทย" },
	{
		"id": "592",
		"zip": "48130",
		"city": "นครพนม",
		"district": "นาแก",
		"lat": 16.8863767,
		"lng": 104.4956239
	 ,"country": "ประเทศไทย" },
	{
		"id": "593",
		"zip": "48150",
		"city": "นครพนม",
		"district": "ศรีสงคราม",
		"lat": 17.6294217,
		"lng": 104.2744808
	 ,"country": "ประเทศไทย" },
	{
		"id": "594",
		"zip": "48180",
		"city": "นครพนม",
		"district": "นาหว้า",
		"lat": 17.4777267,
		"lng": 104.1349852
	 ,"country": "ประเทศไทย" },
	{
		"id": "595",
		"zip": "48190",
		"city": "นครพนม",
		"district": "โพนสวรรค์",
		"lat": 17.4539619,
		"lng": 104.4606845
	 ,"country": "ประเทศไทย" },
	{
		"id": "596",
		"zip": "48140",
		"city": "นครพนม",
		"district": "นาทม",
		"lat": 17.8315539,
		"lng": 104.0420642
	 ,"country": "ประเทศไทย" },
	{
		"id": "597",
		"zip": "48130",
		"city": "นครพนม",
		"district": "วังยาง",
		"lat": 17.046531,
		"lng": 104.4315746
	 ,"country": "ประเทศไทย" },
	{
		"id": "598",
		"zip": "49000",
		"city": "มุกดาหาร",
		"district": "เมืองมุกดาหาร",
		"lat": 16.537152,
		"lng": 104.7154762
	 ,"country": "ประเทศไทย" },
	{
		"id": "599",
		"zip": "49130",
		"city": "มุกดาหาร",
		"district": "นิคมคำสร้อย",
		"lat": 16.3355896,
		"lng": 104.5597007
	 ,"country": "ประเทศไทย" },
	{
		"id": "600",
		"zip": "49120",
		"city": "มุกดาหาร",
		"district": "ดอนตาล",
		"lat": 16.3112941,
		"lng": 104.8221147
	 ,"country": "ประเทศไทย" },
	{
		"id": "601",
		"zip": "49140",
		"city": "มุกดาหาร",
		"district": "ดงหลวง",
		"lat": 16.8279683,
		"lng": 104.5072722
	 ,"country": "ประเทศไทย" },
	{
		"id": "602",
		"zip": "49110",
		"city": "มุกดาหาร",
		"district": "คำชะอี",
		"lat": 16.5399822,
		"lng": 104.3391166
	 ,"country": "ประเทศไทย" },
	{
		"id": "603",
		"zip": "49150",
		"city": "มุกดาหาร",
		"district": "หว้านใหญ่",
		"lat": 16.7137921,
		"lng": 104.7345937
	 ,"country": "ประเทศไทย" },
	{
		"id": "604",
		"zip": "49160",
		"city": "มุกดาหาร",
		"district": "หนองสูง",
		"lat": 16.485,
		"lng": 104.3536111
	 ,"country": "ประเทศไทย" },
	{
		"id": "605",
		"zip": "50200",
		"city": "เชียงใหม่",
		"district": "เมืองเชียงใหม่",
		"lat": 18.7952345,
		"lng": 98.9355737
	 ,"country": "ประเทศไทย" },
	{
		"id": "606",
		"zip": "50100",
		"city": "เชียงใหม่",
		"district": "เมืองเชียงใหม่",
		"lat": 18.7688553,
		"lng": 98.9754318
	 ,"country": "ประเทศไทย" },
	{
		"id": "607",
		"zip": "50300",
		"city": "เชียงใหม่",
		"district": "เมืองเชียงใหม่",
		"lat": 18.8160541,
		"lng": 98.9848536
	 ,"country": "ประเทศไทย" },
	{
		"id": "608",
		"zip": "50000",
		"city": "เชียงใหม่",
		"district": "เมืองเชียงใหม่",
		"lat": 18.7853577,
		"lng": 99.0184183
	 ,"country": "ประเทศไทย" },
	{
		"id": "609",
		"zip": "50160",
		"city": "เชียงใหม่",
		"district": "จอมทอง",
		"lat": 18.4687853,
		"lng": 98.6160674
	 ,"country": "ประเทศไทย" },
	{
		"id": "610",
		"zip": "50240",
		"city": "เชียงใหม่",
		"district": "จอมทอง",
		"lat": 18.4204633,
		"lng": 98.6724282
	 ,"country": "ประเทศไทย" },
	{
		"id": "611",
		"zip": "50270",
		"city": "เชียงใหม่",
		"district": "แม่แจ่ม",
		"lat": 18.7142442,
		"lng": 98.3964938
	 ,"country": "ประเทศไทย" },
	{
		"id": "612",
		"zip": "50170",
		"city": "เชียงใหม่",
		"district": "เชียงดาว",
		"lat": 19.3483988,
		"lng": 98.964938
	 ,"country": "ประเทศไทย" },
	{
		"id": "613",
		"zip": "50220",
		"city": "เชียงใหม่",
		"district": "ดอยสะเก็ด",
		"lat": 18.8629982,
		"lng": 99.1148431
	 ,"country": "ประเทศไทย" },
	{
		"id": "614",
		"zip": "50150",
		"city": "เชียงใหม่",
		"district": "แม่แตง",
		"lat": 19.2102028,
		"lng": 98.8803925
	 ,"country": "ประเทศไทย" },
	{
		"id": "615",
		"zip": "50330",
		"city": "เชียงใหม่",
		"district": "แม่แตง",
		"lat": 19.0012652,
		"lng": 98.8142264
	 ,"country": "ประเทศไทย" },
	{
		"id": "616",
		"zip": "50180",
		"city": "เชียงใหม่",
		"district": "แม่ริม",
		"lat": 18.9028017,
		"lng": 98.9024603
	 ,"country": "ประเทศไทย" },
	{
		"id": "617",
		"zip": "50330",
		"city": "เชียงใหม่",
		"district": "แม่ริม",
		"lat": 19.0012652,
		"lng": 98.8142264
	 ,"country": "ประเทศไทย" },
	{
		"id": "618",
		"zip": "50250",
		"city": "เชียงใหม่",
		"district": "สะเมิง",
		"lat": 18.9399005,
		"lng": 98.6160674
	 ,"country": "ประเทศไทย" },
	{
		"id": "619",
		"zip": "50110",
		"city": "เชียงใหม่",
		"district": "ฝาง",
		"lat": 19.9516363,
		"lng": 99.1456153
	 ,"country": "ประเทศไทย" },
	{
		"id": "620",
		"zip": "50320",
		"city": "เชียงใหม่",
		"district": "ฝาง",
		"lat": 19.6685705,
		"lng": 99.1456153
	 ,"country": "ประเทศไทย" },
	{
		"id": "621",
		"zip": "50280",
		"city": "เชียงใหม่",
		"district": "แม่อาย",
		"lat": 20.0638367,
		"lng": 99.2563859
	 ,"country": "ประเทศไทย" },
	{
		"id": "622",
		"zip": "50190",
		"city": "เชียงใหม่",
		"district": "พร้าว",
		"lat": 19.2869151,
		"lng": 99.2342196
	 ,"country": "ประเทศไทย" },
	{
		"id": "623",
		"zip": "50120",
		"city": "เชียงใหม่",
		"district": "สันป่าตอง",
		"lat": 18.573179,
		"lng": 98.9024603
	 ,"country": "ประเทศไทย" },
	{
		"id": "624",
		"zip": "50130",
		"city": "เชียงใหม่",
		"district": "สันกำแพง",
		"lat": 18.7448892,
		"lng": 99.0863932
	 ,"country": "ประเทศไทย" },
	{
		"id": "625",
		"zip": "50210",
		"city": "เชียงใหม่",
		"district": "สันทราย",
		"lat": 18.8942314,
		"lng": 99.0792263
	 ,"country": "ประเทศไทย" },
	{
		"id": "626",
		"zip": "50290",
		"city": "เชียงใหม่",
		"district": "สันทราย",
		"lat": 18.9927525,
		"lng": 98.9907938
	 ,"country": "ประเทศไทย" },
	{
		"id": "627",
		"zip": "50230",
		"city": "เชียงใหม่",
		"district": "หางดง",
		"lat": 18.714302,
		"lng": 98.9396534
	 ,"country": "ประเทศไทย" },
	{
		"id": "628",
		"zip": "50340",
		"city": "เชียงใหม่",
		"district": "หางดง",
		"lat": 18.6125309,
		"lng": 98.941094
	 ,"country": "ประเทศไทย" },
	{
		"id": "629",
		"zip": "50240",
		"city": "เชียงใหม่",
		"district": "ฮอด",
		"lat": 18.1055904,
		"lng": 98.5830907
	 ,"country": "ประเทศไทย" },
	{
		"id": "630",
		"zip": "50260",
		"city": "เชียงใหม่",
		"district": "ดอยเต่า",
		"lat": 17.9442219,
		"lng": 98.6435589
	 ,"country": "ประเทศไทย" },
	{
		"id": "631",
		"zip": "50310",
		"city": "เชียงใหม่",
		"district": "อมก๋อย",
		"lat": 17.9158197,
		"lng": 98.352656
	 ,"country": "ประเทศไทย" },
	{
		"id": "632",
		"zip": "50140",
		"city": "เชียงใหม่",
		"district": "สารภี",
		"lat": 18.7080539,
		"lng": 99.0349977
	 ,"country": "ประเทศไทย" },
	{
		"id": "633",
		"zip": "50350",
		"city": "เชียงใหม่",
		"district": "เวียงแหง",
		"lat": 19.5759617,
		"lng": 98.6273205
	 ,"country": "ประเทศไทย" },
	{
		"id": "634",
		"zip": "50320",
		"city": "เชียงใหม่",
		"district": "ไชยปราการ",
		"lat": 19.7324423,
		"lng": 99.1409117
	 ,"country": "ประเทศไทย" },
	{
		"id": "635",
		"zip": "50360",
		"city": "เชียงใหม่",
		"district": "แม่วาง",
		"lat": 18.6796993,
		"lng": 98.6380598
	 ,"country": "ประเทศไทย" },
	{
		"id": "636",
		"zip": "50130",
		"city": "เชียงใหม่",
		"district": "แม่ออน",
		"lat": 18.7425957,
		"lng": 99.1118631
	 ,"country": "ประเทศไทย" },
	{
		"id": "637",
		"zip": "50160",
		"city": "เชียงใหม่",
		"district": "ดอยหล่อ",
		"lat": 18.4729631,
		"lng": 98.7811645
	 ,"country": "ประเทศไทย" },
	{
		"id": "638",
		"zip": "58130",
		"city": "เชียงใหม่",
		"district": "กัลยาณิวัฒนา",
		"lat": 18.978506,
		"lng": 98.2869478
	 ,"country": "ประเทศไทย" },
	{
		"id": "639",
		"zip": "51000",
		"city": "ลำพูน",
		"district": "เมืองลำพูน",
		"lat": 18.5744058,
		"lng": 99.0087343
	 ,"country": "ประเทศไทย" },
	{
		"id": "640",
		"zip": "51150",
		"city": "ลำพูน",
		"district": "เมืองลำพูน",
		"lat": 18.5726,
		"lng": 99.000902
	 ,"country": "ประเทศไทย" },
	{
		"id": "641",
		"zip": "51140",
		"city": "ลำพูน",
		"district": "แม่ทา",
		"lat": 18.4214923,
		"lng": 99.1234795
	 ,"country": "ประเทศไทย" },
	{
		"id": "642",
		"zip": "51170",
		"city": "ลำพูน",
		"district": "แม่ทา",
		"lat": 18.3316768,
		"lng": 99.0349977
	 ,"country": "ประเทศไทย" },
	{
		"id": "643",
		"zip": "51130",
		"city": "ลำพูน",
		"district": "บ้านโฮ่ง",
		"lat": 18.3062391,
		"lng": 98.8252502
	 ,"country": "ประเทศไทย" },
	{
		"id": "644",
		"zip": "51110",
		"city": "ลำพูน",
		"district": "ลี้",
		"lat": 17.7822278,
		"lng": 98.9797467
	 ,"country": "ประเทศไทย" },